[
   {
      "Proptype": "RUMAH BERKEMBAR",
      "Locality": "TAMAN NILAM KUALA LANGAT, KUALA LANGAT",
      "Firstvalue": 1695.373853,
      "Secondvalue": 1748.828615,
      "Count": 10,
      "Year": 5.25,
      "CAGR": 0.593045342,
      "lat": 2.829497,
      "lng": 101.5153617,
      "ROI": -1.542202706
   },
   {
      "Proptype": "KONDOMINIUM",
      "Locality": "PUTRAJAYA PRESINT 11, PUTRAJAYA",
      "Firstvalue": 4074.122749,
      "Secondvalue": 4210.526316,
      "Count": 10,
      "Year": 5.5,
      "CAGR": 0.600563617,
      "lat": 2.958881,
      "lng": 101.678756,
      "ROI": 10.67026919
   },
   {
      "Proptype": "RUMAH BERKEMBAR",
      "Locality": "SERI SG LONG, ULU LANGAT",
      "Firstvalue": 4028.386558,
      "Secondvalue": 4458.359424,
      "Count": 10,
      "Year": 8.75,
      "CAGR": 1.165770387,
      "lat": 3.0392984,
      "lng": 101.7830045,
      "ROI": 8.988039403
   },
   {
      "Proptype": "RUMAH TERES - HUJUNG",
      "Locality": "TAMAN MALURI, KUALA LUMPUR",
      "Firstvalue": 4268.254855,
      "Secondvalue": 4708.984743,
      "Count": 10,
      "Year": 7.75,
      "CAGR": 1.27603775,
      "lat": 3.13422,
      "lng": 101.7277009,
      "ROI": 26.97181511
   },
   {
      "Proptype": "RUMAH BERKEMBAR",
      "Locality": "TAMAN SERI BANYAN, ULU LANGAT",
      "Firstvalue": 5544.630808,
      "Secondvalue": 5976.479661,
      "Count": 10,
      "Year": 5.75,
      "CAGR": 1.312921002,
      "lat": 3.129967,
      "lng": 101.8280761,
      "ROI": 15.64583656
   },
   {
      "Proptype": "RUMAH SESEBUAH-REKA BENTUK PEMAJU",
      "Locality": "BUKIT BANDARAYA AREA F, KUALA LUMPUR",
      "Firstvalue": 17501.21536,
      "Secondvalue": 18567.85565,
      "Count": 10,
      "Year": 4.5,
      "CAGR": 1.323381686,
      "lat": 3.138789,
      "lng": 101.6649601,
      "ROI": -4.479734016
   },
   {
      "Proptype": "RUMAH BERKEMBAR",
      "Locality": "CYBERJAYA (PERDANA LAKE VIEW), SEPANG",
      "Firstvalue": 6818.278881,
      "Secondvalue": 7354.718322,
      "Count": 10,
      "Year": 5,
      "CAGR": 1.526229301,
      "lat": 2.916878,
      "lng": 101.6691001,
      "ROI": -25.71282196
   },
   {
      "Proptype": "UNIT KEDIAMAN DLM KEDAI/PEJABAT/KEDIAMAN",
      "Locality": "LORONG HAJI TAIB, KUALA LUMPUR",
      "Firstvalue": 1521.818128,
      "Secondvalue": 1777.777778,
      "Count": 10,
      "Year": 9.25,
      "CAGR": 1.694833276,
      "lat": 3.1634295,
      "lng": 101.6973129,
      "ROI": 12.61956611
   },
   {
      "Proptype": "RUMAH TERES - TENGAH",
      "Locality": "BATANG BERJUNTAI, KUALA SELANGOR",
      "Firstvalue": 1844.551878,
      "Secondvalue": 1983.389116,
      "Count": 10,
      "Year": 4,
      "CAGR": 1.830825133,
      "lat": 3.377953,
      "lng": 101.4062371,
      "ROI": 44.86490224
   },
   {
      "Proptype": "RUMAH TERES - HUJUNG",
      "Locality": "TAMAN IKAN EMAS, KUALA SELANGOR",
      "Firstvalue": 2652.318885,
      "Secondvalue": 2879.660503,
      "Count": 10,
      "Year": 4.5,
      "CAGR": 1.84431451,
      "lat": 3.115527,
      "lng": 101.7192139,
      "ROI": 30.85406643
   },
   {
      "Proptype": "KONDOMINIUM",
      "Locality": "ONE RESIDENCE @ SEKINCHAN PERDANA, SABAK BERNAM",
      "Firstvalue": 2989.855846,
      "Secondvalue": 3116.189461,
      "Count": 10,
      "Year": 2.25,
      "CAGR": 1.856387421,
      "lat": 3.5066324,
      "lng": 101.1008571,
      "ROI": -37.45345921
   },
   {
      "Proptype": "RUMAH SESEBUAH-REKA BENTUK PEMAJU",
      "Locality": "DESA RENING, HULU SELANGOR",
      "Firstvalue": 1375.17305,
      "Secondvalue": 1661.28288,
      "Count": 10,
      "Year": 9.5,
      "CAGR": 2.009508836,
      "lat": 3.5157651,
      "lng": 101.6477787,
      "ROI": 18.28191734
   },
   {
      "Proptype": "UNIT KEDIAMAN DLM KEDAI/PEJABAT/KEDIAMAN",
      "Locality": "TAMAN SETIA BALAKONG, ULU LANGAT",
      "Firstvalue": 2069.808833,
      "Secondvalue": 2213.920022,
      "Count": 10,
      "Year": 3.25,
      "CAGR": 2.092624113,
      "lat": 3.013778,
      "lng": 101.7492131,
      "ROI": 25.83742209
   },
   {
      "Proptype": "RUMAH SESEBUAH-REKA BENTUK PEMAJU",
      "Locality": "DUTA NUSANTARA, KUALA LUMPUR",
      "Firstvalue": 12897.89376,
      "Secondvalue": 15402.73625,
      "Count": 10,
      "Year": 8.5,
      "CAGR": 2.109965032,
      "lat": 3.167803,
      "lng": 101.6668508,
      "ROI": 15.7316438
   },
   {
      "Proptype": "RUMAH TERES MEWAH - TENGAH",
      "Locality": "ASEANA VILLA, KUALA LUMPUR",
      "Firstvalue": 8058.667096,
      "Secondvalue": 9060.307673,
      "Count": 10,
      "Year": 5.5,
      "CAGR": 2.152937593,
      "lat": 3.1725379,
      "lng": 101.6587003,
      "ROI": 19.74538199
   },
   {
      "Proptype": "RUMAH TERES - TENGAH",
      "Locality": "TAMAN DAMAI SABAK BERNAM, SABAK BERNAM",
      "Firstvalue": 1614.639397,
      "Secondvalue": 1955.034213,
      "Count": 10,
      "Year": 8.75,
      "CAGR": 2.21031387,
      "lat": 3.7726446,
      "lng": 100.9923584,
      "ROI": 12.54228655
   },
   {
      "Proptype": "RUMAH PANGSA KOS RENDAH",
      "Locality": "TAMAN SERI RASAU, KLANG",
      "Firstvalue": 1076.337142,
      "Secondvalue": 1159.132307,
      "Count": 10,
      "Year": 3,
      "CAGR": 2.501029597,
      "lat": 3.0599471,
      "lng": 101.4843651,
      "ROI": -25.70054226
   },
   {
      "Proptype": "RUMAH TERES KOS SEDERHANA - TENGAH",
      "Locality": "TAMAN SERI INTAN, ULU LANGAT",
      "Firstvalue": 1932.100469,
      "Secondvalue": 2327.272727,
      "Count": 10,
      "Year": 7.25,
      "CAGR": 2.59997421,
      "lat": 3.1378642,
      "lng": 101.7833606,
      "ROI": 29.22433027
   },
   {
      "Proptype": "RUMAH TERES KOS RENDAH - HUJUNG",
      "Locality": "TAMAN GEMILANG (DENGKIL), SEPANG",
      "Firstvalue": 1732.925586,
      "Secondvalue": 2038.735984,
      "Count": 10,
      "Year": 6,
      "CAGR": 2.745666185,
      "lat": 2.85825,
      "lng": 101.68935,
      "ROI": 26.22381269
   },
   {
      "Proptype": "RUMAH BERKEMBAR",
      "Locality": "P/L 851 OFF JLN SG PUTUS, KLANG",
      "Firstvalue": 2425.07601,
      "Secondvalue": 2796.420582,
      "Count": 10,
      "Year": 4.75,
      "CAGR": 3.044962412,
      "lat": 3.0698718,
      "lng": 101.4377544,
      "ROI": 47.24849276
   },
   {
      "Proptype": "RUMAH TERES - TENGAH",
      "Locality": "TAMAN SALMON, KUALA SELANGOR",
      "Firstvalue": 1574.485264,
      "Secondvalue": 2153.142242,
      "Count": 10,
      "Year": 9.75,
      "CAGR": 3.26233973,
      "lat": 3.340184,
      "lng": 101.249762,
      "ROI": 21.44647124
   },
   {
      "Proptype": "RUMAH TERES - TENGAH",
      "Locality": "TAMAN MELUR KLANG, KLANG",
      "Firstvalue": 1734.242316,
      "Secondvalue": 1865.805526,
      "Count": 10,
      "Year": 2.25,
      "CAGR": 3.303263736,
      "lat": 3.0700179,
      "lng": 101.4445619,
      "ROI": 21.06004444
   },
   {
      "Proptype": "UNIT KEDIAMAN DLM KEDAI/PEJABAT/KEDIAMAN",
      "Locality": "LORONG MERANTI, KUALA LUMPUR",
      "Firstvalue": 2116.508768,
      "Secondvalue": 2468.647792,
      "Count": 10,
      "Year": 4.5,
      "CAGR": 3.479214782,
      "lat": 3.1383167,
      "lng": 101.7065415,
      "ROI": 18.38117988
   },
   {
      "Proptype": "UNIT KEDIAMAN DLM KEDAI/PEJABAT/KEDIAMAN",
      "Locality": "TAMAN TENAGA KUALA LUMPUR, KUALA LUMPUR",
      "Firstvalue": 765.7657658,
      "Secondvalue": 1009.615385,
      "Count": 10,
      "Year": 8,
      "CAGR": 3.516004693,
      "lat": 3.114514,
      "lng": 101.7235501,
      "ROI": 37.7166022
   },
   {
      "Proptype": "RUMAH TERES - TEPI",
      "Locality": "PINGGIRAN BATU CAVES, GOMBAK",
      "Firstvalue": 3498.701654,
      "Secondvalue": 4714.016342,
      "Count": 10,
      "Year": 8.25,
      "CAGR": 3.680014993,
      "lat": 3.252888,
      "lng": 101.693885,
      "ROI": 21.79423149
   },
   {
      "Proptype": "RUMAH TERES - TENGAH",
      "Locality": "SHAH ALAM UTAMA (CAHAYA ALAM), PETALING",
      "Firstvalue": 4362.680683,
      "Secondvalue": 5014.569357,
      "Count": 10,
      "Year": 3.75,
      "CAGR": 3.78343899,
      "lat": 3.085923,
      "lng": 101.490332,
      "ROI": 22.22241165
   },
   {
      "Proptype": "RUMAH TERES MEWAH - TENGAH",
      "Locality": "CYBERJAYA (SYMPHONY HILLS), SEPANG",
      "Firstvalue": 4296.123178,
      "Secondvalue": 4899.847125,
      "Count": 10,
      "Year": 3.5,
      "CAGR": 3.828348073,
      "lat": 2.9158549,
      "lng": 101.6398781,
      "ROI": 14.61811705
   },
   {
      "Proptype": "RUMAH BERKEMBAR",
      "Locality": "PUNCAK SAUJANA, ULU LANGAT",
      "Firstvalue": 1919.993565,
      "Secondvalue": 2198.568249,
      "Count": 10,
      "Year": 3.5,
      "CAGR": 3.946885085,
      "lat": 3.0168734,
      "lng": 101.8143449,
      "ROI": -39.33482571
   },
   {
      "Proptype": "UNIT KEDIAMAN DLM KEDAI/PEJABAT/KEDIAMAN",
      "Locality": "FABER PLAZA, KUALA LUMPUR",
      "Firstvalue": 2164.179104,
      "Secondvalue": 2985.074627,
      "Count": 10,
      "Year": 8.25,
      "CAGR": 3.974951505,
      "lat": 3.102188,
      "lng": 101.684824,
      "ROI": 23.77656121
   },
   {
      "Proptype": "KONDOMINIUM",
      "Locality": "TAMAN DESA UKAY (UKAY HEIGHT), GOMBAK",
      "Firstvalue": 1962.961957,
      "Secondvalue": 2771.73913,
      "Count": 10,
      "Year": 8.75,
      "CAGR": 4.021862422,
      "lat": 3.166496,
      "lng": 101.7558151,
      "ROI": 17.34224786
   },
   {
      "Proptype": "UNIT KEDIAMAN DLM KEDAI/PEJABAT/KEDIAMAN",
      "Locality": "TAMAN KERAMAT PERMAI, GOMBAK",
      "Firstvalue": 1378.080415,
      "Secondvalue": 1988.426996,
      "Count": 10,
      "Year": 9,
      "CAGR": 4.158037324,
      "lat": 3.1756392,
      "lng": 101.7445638,
      "ROI": 18.98802547
   },
   {
      "Proptype": "RUMAH TERES - HUJUNG",
      "Locality": "TAMAN TUN PERAK GOMBAK, GOMBAK",
      "Firstvalue": 2037.647972,
      "Secondvalue": 2618.29063,
      "Count": 10,
      "Year": 6,
      "CAGR": 4.267297165,
      "lat": 3.302602,
      "lng": 101.5799281,
      "ROI": 41.91863277
   },
   {
      "Proptype": "RUMAH TERES KOS RENDAH - HUJUNG",
      "Locality": "TAMAN AMPANG PECAH, HULU SELANGOR",
      "Firstvalue": 1035.69447,
      "Secondvalue": 1479.563529,
      "Count": 10,
      "Year": 8.5,
      "CAGR": 4.285459726,
      "lat": 3.546625,
      "lng": 101.6591594,
      "ROI": 14.41034798
   },
   {
      "Proptype": "RUMAH PANGSA KOS RENDAH",
      "Locality": "TAMAN SERI PRISTANA, KUALA SELANGOR",
      "Firstvalue": 987.4917709,
      "Secondvalue": 1398.946675,
      "Count": 10,
      "Year": 8.25,
      "CAGR": 4.312289061,
      "lat": 3.2085682,
      "lng": 101.4711796,
      "ROI": 21.43409517
   },
   {
      "Proptype": "RUMAH SESEBUAH-REKA BENTUK SENDIRI",
      "Locality": "TAMAN BUKIT KUCHAI, PETALING",
      "Firstvalue": 1187.889625,
      "Secondvalue": 1647.989453,
      "Count": 10,
      "Year": 7.75,
      "CAGR": 4.314718896,
      "lat": 3.05735,
      "lng": 101.6374039,
      "ROI": 40.21002209
   },
   {
      "Proptype": "RUMAH BANDAR",
      "Locality": "ONE MENERUNG, KUALA LUMPUR",
      "Firstvalue": 12603.9783,
      "Secondvalue": 17152.65866,
      "Count": 10,
      "Year": 7,
      "CAGR": 4.500335677,
      "lat": 3.1449531,
      "lng": 101.6659683,
      "ROI": 19.4690885
   },
   {
      "Proptype": "RUMAH TERES KOS RENDAH - TENGAH",
      "Locality": "KAMPUNG MOHD TAIB (KAMPUNG SERI TERATAI), HULU SELANGOR",
      "Firstvalue": 663.7961966,
      "Secondvalue": 986.7240761,
      "Count": 10,
      "Year": 9,
      "CAGR": 4.503057295,
      "lat": 3.3543957,
      "lng": 101.5708354,
      "ROI": 24.03175809
   },
   {
      "Proptype": "RUMAH TERES - TENGAH",
      "Locality": "TAMAN SERI MEWAH 8, KLANG",
      "Firstvalue": 1453.175457,
      "Secondvalue": 2260.495156,
      "Count": 10,
      "Year": 10,
      "CAGR": 4.517389182,
      "lat": "NA",
      "lng": "NA",
      "ROI": 26.5998702
   },
   {
      "Proptype": "UNIT KEDIAMAN DLM KEDAI/PEJABAT/KEDIAMAN",
      "Locality": "TAMAN INDAH PERDANA/KEPONG PERDANA, GOMBAK",
      "Firstvalue": 1497.566455,
      "Secondvalue": 2256.944444,
      "Count": 10,
      "Year": 9.25,
      "CAGR": 4.534058604,
      "lat": 3.219383,
      "lng": 101.636956,
      "ROI": 24.84350209
   },
   {
      "Proptype": "KONDOMINIUM",
      "Locality": "INARA CONDOMINIUM, KUALA LUMPUR",
      "Firstvalue": 8086.78501,
      "Secondvalue": 11535.83618,
      "Count": 10,
      "Year": 8,
      "CAGR": 4.540397671,
      "lat": 3.1397953,
      "lng": 101.6655188,
      "ROI": 16.31822786
   },
   {
      "Proptype": "RUMAH TERES - TENGAH",
      "Locality": "TAMAN MAKMUR SG BESAR, SABAK BERNAM",
      "Firstvalue": 1281.394157,
      "Secondvalue": 1614.639397,
      "Count": 10,
      "Year": 4.75,
      "CAGR": 4.986952035,
      "lat": "NA",
      "lng": "NA",
      "ROI": 12.69571253
   },
   {
      "Proptype": "RUMAH TERES - HUJUNG",
      "Locality": "TAMAN TTDI GROVE KAJANG, ULU LANGAT",
      "Firstvalue": 3475.799731,
      "Secondvalue": 4854.142357,
      "Count": 10,
      "Year": 6.75,
      "CAGR": 5.072735513,
      "lat": 2.9974427,
      "lng": 101.8107426,
      "ROI": 20.05739021
   },
   {
      "Proptype": "RUMAH TERES KOS RENDAH - TENGAH",
      "Locality": "TAMAN BAIDURI ( DENGKIL ), SEPANG",
      "Firstvalue": 1835.781041,
      "Secondvalue": 2503.337784,
      "Count": 10,
      "Year": 6.25,
      "CAGR": 5.087672139,
      "lat": 2.8624714,
      "lng": 101.6808572,
      "ROI": 35.46148149
   },
   {
      "Proptype": "RUMAH TERES - TEPI",
      "Locality": "TAMAN SETIAWANGSA, KUALA LUMPUR",
      "Firstvalue": 5315.27785,
      "Secondvalue": 8547.512379,
      "Count": 10,
      "Year": 9.5,
      "CAGR": 5.127718312,
      "lat": 3.1830052,
      "lng": 101.74618,
      "ROI": 16.14798512
   },
   {
      "Proptype": "RUMAH PANGSA KOS SEDERHANA",
      "Locality": "SS 26 TAMAN MAYANG JAYA, PETALING",
      "Firstvalue": 2113.271344,
      "Secondvalue": 3489.702517,
      "Count": 10,
      "Year": 10,
      "CAGR": 5.143714168,
      "lat": 3.1183226,
      "lng": 101.6042508,
      "ROI": 35.11030238
   },
   {
      "Proptype": "RUMAH SESEBUAH-REKA BENTUK PEMAJU",
      "Locality": "TAMAN BUKIT SAGA, PETALING",
      "Firstvalue": 5192.264279,
      "Secondvalue": 7555.94304,
      "Count": 10,
      "Year": 7.25,
      "CAGR": 5.310909523,
      "lat": 3.032446,
      "lng": 101.570036,
      "ROI": 19.10510261
   },
   {
      "Proptype": "RUMAH TERES KOS SEDERHANA - TENGAH",
      "Locality": "TAMAN PERMAI, KUALA SELANGOR",
      "Firstvalue": 1365.758368,
      "Secondvalue": 1534.615767,
      "Count": 10,
      "Year": 2.25,
      "CAGR": 5.317453383,
      "lat": 3.316161,
      "lng": 101.2753771,
      "ROI": 28.00798255
   },
   {
      "Proptype": "RUMAH PANGSA KOS SEDERHANA",
      "Locality": "TTDI JAYA, PETALING",
      "Firstvalue": 1639.137561,
      "Secondvalue": 2739.726027,
      "Count": 10,
      "Year": 9.75,
      "CAGR": 5.409851959,
      "lat": 3.096555,
      "lng": 101.5553239,
      "ROI": 35.22474577
   },
   {
      "Proptype": "RUMAH TERES - HUJUNG",
      "Locality": "TAMAN SERI KERAMAT (AU3), GOMBAK",
      "Firstvalue": 2398.040875,
      "Secondvalue": 3566.254319,
      "Count": 10,
      "Year": 7.5,
      "CAGR": 5.434019568,
      "lat": 3.1734609,
      "lng": 101.7468122,
      "ROI": 20.22224107
   },
   {
      "Proptype": "RUMAH TERES - HUJUNG",
      "Locality": "SS 15 SUBANG JAYA, PETALING",
      "Firstvalue": 4823.588349,
      "Secondvalue": 6989.623098,
      "Count": 10,
      "Year": 7,
      "CAGR": 5.441586424,
      "lat": 3.073608,
      "lng": 101.5874168,
      "ROI": 30.74315136
   },
   {
      "Proptype": "RUMAH TERES KOS RENDAH - TENGAH",
      "Locality": "TAMAN MESRA OFF JLN SG JATI, KLANG",
      "Firstvalue": 1943.489311,
      "Secondvalue": 2915.233966,
      "Count": 10,
      "Year": 7.5,
      "CAGR": 5.555005944,
      "lat": 3.0095261,
      "lng": 101.4717881,
      "ROI": 32.88711967
   },
   {
      "Proptype": "RUMAH TERES - TEPI",
      "Locality": "TAMAN PUTRA IMPIANA, SEPANG",
      "Firstvalue": 2432.704003,
      "Secondvalue": 3765.744708,
      "Count": 10,
      "Year": 8,
      "CAGR": 5.613686117,
      "lat": 2.977284,
      "lng": 101.6017481,
      "ROI": 34.85251552
   },
   {
      "Proptype": "RUMAH BANDAR",
      "Locality": "TAMAN RASHNA, KLANG",
      "Firstvalue": 1797.581436,
      "Secondvalue": 2717.391304,
      "Count": 10,
      "Year": 7.5,
      "CAGR": 5.664348816,
      "lat": 3.05816,
      "lng": 101.4780211,
      "ROI": 20.58482267
   },
   {
      "Proptype": "RUMAH TERES - TENGAH",
      "Locality": "TAMAN SERI MANIK (FASA 1), KUALA SELANGOR",
      "Firstvalue": 2403.624988,
      "Secondvalue": 2875.149508,
      "Count": 10,
      "Year": 3.25,
      "CAGR": 5.666307187,
      "lat": "NA",
      "lng": "NA",
      "ROI": 19.072719
   },
   {
      "Proptype": "RUMAH TERES - TENGAH",
      "Locality": "TAMAN ZAMRUD HULU SELANGOR, HULU SELANGOR",
      "Firstvalue": 768.7576876,
      "Secondvalue": 1242.064587,
      "Count": 10,
      "Year": 8.5,
      "CAGR": 5.806492715,
      "lat": 3.5945206,
      "lng": 101.6022686,
      "ROI": 18.29878699
   },
   {
      "Proptype": "RUMAH BERKEMBAR",
      "Locality": "TEMPLER BESTARI, GOMBAK",
      "Firstvalue": 3309.853178,
      "Secondvalue": 5516.421964,
      "Count": 10,
      "Year": 9,
      "CAGR": 5.840007284,
      "lat": 3.291664,
      "lng": 101.6371901,
      "ROI": 23.36353209
   },
   {
      "Proptype": "RUMAH TERES - HUJUNG",
      "Locality": "TAMAN MEDAN PEJASA, PETALING",
      "Firstvalue": 2836.991838,
      "Secondvalue": 4806.866953,
      "Count": 10,
      "Year": 9.25,
      "CAGR": 5.866167388,
      "lat": 3.0791153,
      "lng": 101.6459282,
      "ROI": 20.79844796
   },
   {
      "Proptype": "PANGSAPURI",
      "Locality": "P/L 1126 TAMAN KEMBARA, KLANG",
      "Firstvalue": 1805.555556,
      "Secondvalue": 2083.333333,
      "Count": 10,
      "Year": 2.5,
      "CAGR": 5.891027562,
      "lat": 3.068453,
      "lng": 101.4053141,
      "ROI": 25.82949597
   },
   {
      "Proptype": "RUMAH TERES KOS RENDAH - HUJUNG",
      "Locality": "TAMAN SERI GOMBAK, GOMBAK",
      "Firstvalue": 2463.368635,
      "Secondvalue": 3965.285052,
      "Count": 10,
      "Year": 8.25,
      "CAGR": 5.940007819,
      "lat": 3.2453555,
      "lng": 101.7019249,
      "ROI": 37.42950678
   },
   {
      "Proptype": "RUMAH TERES - TENGAH",
      "Locality": "TAMAN SINAR SURIA, KUALA LUMPUR",
      "Firstvalue": 2439.695171,
      "Secondvalue": 4229.402808,
      "Count": 10,
      "Year": 9.5,
      "CAGR": 5.962438853,
      "lat": 3.2102579,
      "lng": 101.6347491,
      "ROI": 23.52594925
   },
   {
      "Proptype": "RUMAH TERES - TEPI",
      "Locality": "MUTIARA DAMANSARA, PETALING",
      "Firstvalue": 6126.007257,
      "Secondvalue": 9094.76462,
      "Count": 10,
      "Year": 6.75,
      "CAGR": 6.028908314,
      "lat": 3.160611,
      "lng": 101.6121892,
      "ROI": 29.30893709
   },
   {
      "Proptype": "RUMAH PANGSA KOS RENDAH",
      "Locality": "TAMAN RESTU, ULU LANGAT",
      "Firstvalue": 500.6675567,
      "Secondvalue": 824.5614035,
      "Count": 10,
      "Year": 8.5,
      "CAGR": 6.045197712,
      "lat": 2.98897,
      "lng": 101.808918,
      "ROI": 34.23752585
   },
   {
      "Proptype": "RUMAH SESEBUAH-REKA BENTUK SENDIRI",
      "Locality": "KAMPUNG SIMPANG TIGA, GOMBAK",
      "Firstvalue": 1136.227724,
      "Secondvalue": 1839.926403,
      "Count": 10,
      "Year": 8,
      "CAGR": 6.210360693,
      "lat": 3.232427,
      "lng": 101.7082681,
      "ROI": 36.79887063
   },
   {
      "Proptype": "KONDOMINIUM",
      "Locality": "SERI SE EKAR CONDOMINIUM, KUALA LUMPUR",
      "Firstvalue": 9136.451976,
      "Secondvalue": 13990.09288,
      "Count": 10,
      "Year": 7,
      "CAGR": 6.275881877,
      "lat": 3.154265,
      "lng": 101.728332,
      "ROI": 19.70352094
   },
   {
      "Proptype": "RUMAH TERES - TENGAH",
      "Locality": "PANDAMARAN JAYA, KLANG",
      "Firstvalue": 1682.085786,
      "Secondvalue": 3001.448975,
      "Count": 10,
      "Year": 9.5,
      "CAGR": 6.284975356,
      "lat": 2.9982694,
      "lng": 101.4257227,
      "ROI": -3.300440891
   },
   {
      "Proptype": "RUMAH TERES - TEPI",
      "Locality": "TAMAN KIEN LEONG, KLANG",
      "Firstvalue": 1780.767709,
      "Secondvalue": 2773.771219,
      "Count": 10,
      "Year": 7.25,
      "CAGR": 6.303281518,
      "lat": 3.0497232,
      "lng": 101.4484936,
      "ROI": 34.5356644
   },
   {
      "Proptype": "RUMAH TERES - TENGAH",
      "Locality": "TAMAN BAYU (P/L 4900), KLANG",
      "Firstvalue": 1603.916934,
      "Secondvalue": 2237.04204,
      "Count": 10,
      "Year": 5.25,
      "CAGR": 6.542366177,
      "lat": 3.1315173,
      "lng": 101.4445619,
      "ROI": 27.98209376
   },
   {
      "Proptype": "RUMAH PANGSA KOS SEDERHANA",
      "Locality": "TAMAN TUN PERAK GOMBAK, GOMBAK",
      "Firstvalue": 867.3938757,
      "Secondvalue": 1250,
      "Count": 10,
      "Year": 5.75,
      "CAGR": 6.56114974,
      "lat": 3.302602,
      "lng": 101.5799281,
      "ROI": 41.91863277
   },
   {
      "Proptype": "RUMAH TERES - TENGAH",
      "Locality": "TAMAN BANGSA INDAH SEK 24, KLANG",
      "Firstvalue": 1845.637584,
      "Secondvalue": 3271.812081,
      "Count": 10,
      "Year": 9,
      "CAGR": 6.568016047,
      "lat": 3.03865,
      "lng": 101.51807,
      "ROI": 25.83238905
   },
   {
      "Proptype": "RUMAH TERES - TEPI",
      "Locality": "DAMANSARA EMAS SEK 5 KOTA DAMANSARA, PETALING",
      "Firstvalue": 3421.470411,
      "Secondvalue": 4881.242931,
      "Count": 10,
      "Year": 5.5,
      "CAGR": 6.673796442,
      "lat": 3.157046,
      "lng": 101.590158,
      "ROI": 37.035068
   },
   {
      "Proptype": "RUMAH BERKEMBAR",
      "Locality": "KAMPUNG BARU JINJANG SELATAN, KUALA LUMPUR",
      "Firstvalue": 2567.094516,
      "Secondvalue": 4434.528833,
      "Count": 10,
      "Year": 8.25,
      "CAGR": 6.850470607,
      "lat": 3.200629,
      "lng": 101.6594651,
      "ROI": 21.81804666
   },
   {
      "Proptype": "RUMAH TERES - HUJUNG",
      "Locality": "TAMAN SETIA JLN JOHAN SETIA, KLANG",
      "Firstvalue": 1982.499316,
      "Secondvalue": 2761.627907,
      "Count": 10,
      "Year": 5,
      "CAGR": 6.85391118,
      "lat": 2.9793077,
      "lng": 101.4824687,
      "ROI": 23.2410044
   },
   {
      "Proptype": "RUMAH TERES - TENGAH",
      "Locality": "DESA SALAK MAJU, SEPANG",
      "Firstvalue": 2079.372624,
      "Secondvalue": 2584.363118,
      "Count": 10,
      "Year": 3.25,
      "CAGR": 6.918456561,
      "lat": 2.797799,
      "lng": 101.7452573,
      "ROI": 32.88051456
   },
   {
      "Proptype": "PANGSAPURI",
      "Locality": "KAMPUNG DESA AMAN, GOMBAK",
      "Firstvalue": 1311.328677,
      "Secondvalue": 2173.913043,
      "Count": 10,
      "Year": 7.5,
      "CAGR": 6.972155737,
      "lat": 3.205886,
      "lng": 101.5957199,
      "ROI": 32.08612103
   },
   {
      "Proptype": "RUMAH TERES - TENGAH",
      "Locality": "TAMAN JAYA 2 (P/L 1525), KLANG",
      "Firstvalue": 1624.69537,
      "Secondvalue": 2518.347964,
      "Count": 10,
      "Year": 6.5,
      "CAGR": 6.97533635,
      "lat": 3.143409,
      "lng": 101.3731481,
      "ROI": 28.49682043
   },
   {
      "Proptype": "RUMAH TERES - TENGAH",
      "Locality": "TAMAN BERNAM JAYA, HULU SELANGOR",
      "Firstvalue": 1221.374046,
      "Secondvalue": 2144.607843,
      "Count": 10,
      "Year": 8.25,
      "CAGR": 7.062225552,
      "lat": 3.657963,
      "lng": 101.536267,
      "ROI": 33.54127057
   },
   {
      "Proptype": "RUMAH SESEBUAH-REKA BENTUK PEMAJU",
      "Locality": "TAMAN KHET LOONG, KUALA LUMPUR",
      "Firstvalue": 7403.326332,
      "Secondvalue": 12188.0746,
      "Count": 10,
      "Year": 7.25,
      "CAGR": 7.118184024,
      "lat": 3.139003,
      "lng": 101.686855,
      "ROI": 31.79041415
   },
   {
      "Proptype": "RUMAH TERES KOS RENDAH - TENGAH",
      "Locality": "TAMAN BERNAM JAYA, HULU SELANGOR",
      "Firstvalue": 807.4645613,
      "Secondvalue": 1222.333433,
      "Count": 10,
      "Year": 6,
      "CAGR": 7.154653588,
      "lat": 3.657963,
      "lng": 101.536267,
      "ROI": 33.54127057
   },
   {
      "Proptype": "RUMAH TERES - HUJUNG",
      "Locality": "TAMAN INTAN BAIDURI, KUALA LUMPUR",
      "Firstvalue": 3967.918953,
      "Secondvalue": 6242.197253,
      "Count": 10,
      "Year": 6.5,
      "CAGR": 7.219315437,
      "lat": 3.233433,
      "lng": 101.6477258,
      "ROI": 25.65816896
   },
   {
      "Proptype": "RUMAH TERES KOS RENDAH - TENGAH",
      "Locality": "TAMAN KILAUAN, KUALA SELANGOR",
      "Firstvalue": 841.6305377,
      "Secondvalue": 1397.53663,
      "Count": 10,
      "Year": 7.25,
      "CAGR": 7.245275089,
      "lat": 3.374181,
      "lng": 101.3881759,
      "ROI": 6.824451964
   },
   {
      "Proptype": "RUMAH SESEBUAH-REKA BENTUK PEMAJU",
      "Locality": "SEK 17 PETALING JAYA, PETALING",
      "Firstvalue": 8812.999174,
      "Secondvalue": 17434.80898,
      "Count": 10,
      "Year": 9.75,
      "CAGR": 7.247968188,
      "lat": 3.1238708,
      "lng": 101.6342658,
      "ROI": 32.03622355
   },
   {
      "Proptype": "RUMAH TERES - TENGAH",
      "Locality": "DESA BUKIT CAHAYA, ULU LANGAT",
      "Firstvalue": 2503.619691,
      "Secondvalue": 4231.848224,
      "Count": 10,
      "Year": 7.5,
      "CAGR": 7.249406269,
      "lat": 3.044435,
      "lng": 101.742206,
      "ROI": 39.86394819
   },
   {
      "Proptype": "RUMAH TERES - TENGAH",
      "Locality": "TAMAN RADIN JAYA, KUALA SELANGOR",
      "Firstvalue": 1614.639397,
      "Secondvalue": 2691.065662,
      "Count": 10,
      "Year": 7.25,
      "CAGR": 7.300026082,
      "lat": 3.427505,
      "lng": 101.1642901,
      "ROI": 31.89860439
   },
   {
      "Proptype": "RUMAH TERES KOS RENDAH - TENGAH",
      "Locality": "TAMAN MUJUR, KLANG",
      "Firstvalue": 992.7669834,
      "Secondvalue": 1914.622039,
      "Count": 10,
      "Year": 9.25,
      "CAGR": 7.358465395,
      "lat": 3.0062731,
      "lng": 101.4612445,
      "ROI": 31.68452898
   },
   {
      "Proptype": "RUMAH BERKEMBAR",
      "Locality": "TANJUNG KARANG, KUALA SELANGOR",
      "Firstvalue": 2164.65902,
      "Secondvalue": 2927.484763,
      "Count": 10,
      "Year": 4.25,
      "CAGR": 7.361425708,
      "lat": 3.340184,
      "lng": 101.249762,
      "ROI": 31.27055594
   },
   {
      "Proptype": "RUMAH TERES KOS SEDERHANA - TENGAH",
      "Locality": "TAMAN BANDAR BARU/ TANJAK, HULU SELANGOR",
      "Firstvalue": 1239.39987,
      "Secondvalue": 2446.183953,
      "Count": 10,
      "Year": 9.5,
      "CAGR": 7.419186643,
      "lat": 2.976373,
      "lng": 101.771514,
      "ROI": 26.8901862
   },
   {
      "Proptype": "RUMAH TERES - TEPI",
      "Locality": "TAMAN UNIVERSITI, ULU LANGAT",
      "Firstvalue": 1744.10228,
      "Secondvalue": 3207.165219,
      "Count": 10,
      "Year": 8.5,
      "CAGR": 7.42947587,
      "lat": 2.943521,
      "lng": 101.796394,
      "ROI": -23529.58941
   },
   {
      "Proptype": "RUMAH TERES - TEPI",
      "Locality": "USJ 22, PETALING",
      "Firstvalue": 2905.477166,
      "Secondvalue": 5698.276271,
      "Count": 10,
      "Year": 9.25,
      "CAGR": 7.553472375,
      "lat": 3.025554,
      "lng": 101.583724,
      "ROI": 39.76278602
   },
   {
      "Proptype": "RUMAH SESEBUAH-REKA BENTUK PEMAJU",
      "Locality": "TAMAN ALAM SHAH, KLANG",
      "Firstvalue": 4092.127429,
      "Secondvalue": 6822.612086,
      "Count": 10,
      "Year": 7,
      "CAGR": 7.575780146,
      "lat": 3.032272,
      "lng": 101.4721492,
      "ROI": 30.60113686
   },
   {
      "Proptype": "RUMAH TERES - TEPI",
      "Locality": "TAMAN SEMENYIH IMPIAN, ULU LANGAT",
      "Firstvalue": 2313.386798,
      "Secondvalue": 3932.757557,
      "Count": 10,
      "Year": 7.25,
      "CAGR": 7.59350566,
      "lat": 2.991405,
      "lng": 101.8731332,
      "ROI": 33.34761887
   },
   {
      "Proptype": "RUMAH TERES - HUJUNG",
      "Locality": "DESA PARK CITY (SOUTH LAKE), KUALA LUMPUR",
      "Firstvalue": 5889.286342,
      "Secondvalue": 11407.646,
      "Count": 10,
      "Year": 9,
      "CAGR": 7.622656377,
      "lat": 3.186244,
      "lng": 101.6299321,
      "ROI": 30.21803359
   },
   {
      "Proptype": "RUMAH TERES - TEPI",
      "Locality": "TAMAN RIMBAYU, KUALA LANGAT",
      "Firstvalue": 4964.00187,
      "Secondvalue": 5454.873299,
      "Count": 10,
      "Year": 1.25,
      "CAGR": 7.835606428,
      "lat": 2.9498348,
      "lng": 101.547645,
      "ROI": 25.61052344
   },
   {
      "Proptype": "RUMAH TERES - TEPI",
      "Locality": "TAMAN CHERAS AWANA, ULU LANGAT",
      "Firstvalue": 3168.342028,
      "Secondvalue": 5394.140002,
      "Count": 10,
      "Year": 7,
      "CAGR": 7.897871988,
      "lat": 3.089372,
      "lng": 101.761848,
      "ROI": 30.67420249
   },
   {
      "Proptype": "RUMAH BERKEMBAR",
      "Locality": "TIARA VILLA, KUALA LUMPUR",
      "Firstvalue": 3328.7205,
      "Secondvalue": 6500.355313,
      "Count": 10,
      "Year": 8.75,
      "CAGR": 7.948909366,
      "lat": 3.0854493,
      "lng": 101.6782739,
      "ROI": 28.40590191
   },
   {
      "Proptype": "RUMAH TERES - TENGAH",
      "Locality": "TAMAN JASARIA, KLANG",
      "Firstvalue": 1479.930192,
      "Secondvalue": 2303.664921,
      "Count": 10,
      "Year": 5.75,
      "CAGR": 7.999631735,
      "lat": 3.080864,
      "lng": 101.4271104,
      "ROI": 33.86743435
   },
   {
      "Proptype": "RUMAH TERES - TENGAH",
      "Locality": "TAMAN RIA MIN, KUALA SELANGOR",
      "Firstvalue": 1688.315639,
      "Secondvalue": 2433.608128,
      "Count": 10,
      "Year": 4.75,
      "CAGR": 8.001788689,
      "lat": 3.426913,
      "lng": 101.173252,
      "ROI": 26.28214402
   },
   {
      "Proptype": "RUMAH TERES KOS RENDAH - TENGAH",
      "Locality": "TAMAN SERI KAPAR P/L 353, KLANG",
      "Firstvalue": 1100.203114,
      "Secondvalue": 2200.406229,
      "Count": 10,
      "Year": 9,
      "CAGR": 8.005973889,
      "lat": 3.143336,
      "lng": 101.3571742,
      "ROI": 22.71275793
   },
   {
      "Proptype": "RUMAH TERES - TENGAH",
      "Locality": "TAMAN BUKIT NAGA P/L 2926, KLANG",
      "Firstvalue": 2076.886768,
      "Secondvalue": 3880.847493,
      "Count": 10,
      "Year": 8,
      "CAGR": 8.12826131,
      "lat": "NA",
      "lng": "NA",
      "ROI": 32.12630546
   },
   {
      "Proptype": "RUMAH PANGSA KOS RENDAH",
      "Locality": "TKS BUSINESS CENTRE (KAJANG), ULU LANGAT",
      "Firstvalue": 923.6711731,
      "Secondvalue": 1870.967742,
      "Count": 10,
      "Year": 9,
      "CAGR": 8.158583273,
      "lat": 2.9777151,
      "lng": 101.7915752,
      "ROI": 89.45142642
   },
   {
      "Proptype": "RUMAH TERES KOS RENDAH - TEPI",
      "Locality": "TAMAN SERI GOMBAK, GOMBAK",
      "Firstvalue": 2414.486922,
      "Secondvalue": 4620.264875,
      "Count": 10,
      "Year": 8.25,
      "CAGR": 8.183908742,
      "lat": 3.2453555,
      "lng": 101.7019249,
      "ROI": 37.42950678
   },
   {
      "Proptype": "RUMAH TERES - TENGAH",
      "Locality": "TAMAN SAGA P/L 327, KLANG",
      "Firstvalue": 1076.426265,
      "Secondvalue": 2229.74012,
      "Count": 10,
      "Year": 9.25,
      "CAGR": 8.19105289,
      "lat": 3.016327,
      "lng": 101.47318,
      "ROI": 23.24053272
   },
   {
      "Proptype": "RUMAH TERES KOS SEDERHANA - TENGAH",
      "Locality": "TAMAN BERNAM JAYA, HULU SELANGOR",
      "Firstvalue": 1512.750324,
      "Secondvalue": 2543.720191,
      "Count": 10,
      "Year": 6.5,
      "CAGR": 8.323677944,
      "lat": 3.657963,
      "lng": 101.536267,
      "ROI": 33.54127057
   },
   {
      "Proptype": "RUMAH BERKEMBAR",
      "Locality": "TAMAN JASMIN, ULU LANGAT",
      "Firstvalue": 2530.900087,
      "Secondvalue": 4260.352657,
      "Count": 10,
      "Year": 6.5,
      "CAGR": 8.341655905,
      "lat": 2.983352,
      "lng": 101.8103771,
      "ROI": 29.60220887
   },
   {
      "Proptype": "RUMAH TERES - HUJUNG",
      "Locality": "TAMAN BAIDURI, KUALA LANGAT",
      "Firstvalue": 1454.181367,
      "Secondvalue": 3004.844545,
      "Count": 10,
      "Year": 9,
      "CAGR": 8.398333053,
      "lat": 2.800334,
      "lng": 101.4924172,
      "ROI": 20.61518206
   },
   {
      "Proptype": "RUMAH TERES KOS RENDAH - TENGAH",
      "Locality": "TAMAN SEJAHTERA KUALA LANGAT, KUALA LANGAT",
      "Firstvalue": 1381.728191,
      "Secondvalue": 3039.128783,
      "Count": 10,
      "Year": 9.75,
      "CAGR": 8.420251091,
      "lat": 2.878505,
      "lng": 101.499161,
      "ROI": 35.24524967
   },
   {
      "Proptype": "PANGSAPURI",
      "Locality": "GOODVIEW HEIGHT TOWN CENTRE, ULU LANGAT",
      "Firstvalue": 3322.949117,
      "Secondvalue": 3461.405331,
      "Count": 10,
      "Year": 0.5,
      "CAGR": 8.506944444,
      "lat": 3.0046041,
      "lng": 101.8243692,
      "ROI": 39.97869519
   },
   {
      "Proptype": "RUMAH BERKEMBAR",
      "Locality": "SAUJANA MELAWATI, GOMBAK",
      "Firstvalue": 3585.905831,
      "Secondvalue": 6904.539178,
      "Count": 10,
      "Year": 8,
      "CAGR": 8.534291914,
      "lat": 3.2174051,
      "lng": 101.7590887,
      "ROI": 33.7701194
   },
   {
      "Proptype": "RUMAH TERES - TENGAH",
      "Locality": "TAMAN WANGI PEKAN KAPAR, KLANG",
      "Firstvalue": 1305.931679,
      "Secondvalue": 2421.959096,
      "Count": 10,
      "Year": 7.5,
      "CAGR": 8.584085888,
      "lat": 3.1470582,
      "lng": 101.3750215,
      "ROI": 34.08647873
   },
   {
      "Proptype": "RUMAH PANGSA KOS SEDERHANA",
      "Locality": "LAVENDER PARK, ULU LANGAT",
      "Firstvalue": 831.9467554,
      "Secondvalue": 1512.820513,
      "Count": 10,
      "Year": 7.25,
      "CAGR": 8.597435242,
      "lat": 3.0811676,
      "lng": 101.7686804,
      "ROI": 21.41244782
   },
   {
      "Proptype": "RUMAH TERES - HUJUNG",
      "Locality": "TAMAN SELATAN, KLANG",
      "Firstvalue": 1163.885899,
      "Secondvalue": 2402.691014,
      "Count": 10,
      "Year": 8.75,
      "CAGR": 8.636487752,
      "lat": 3.029856,
      "lng": 101.441687,
      "ROI": 35.39516632
   },
   {
      "Proptype": "RUMAH TERES - HUJUNG",
      "Locality": "SUBANG PERDANA, PETALING",
      "Firstvalue": 2368.151095,
      "Secondvalue": 2974.082991,
      "Count": 10,
      "Year": 2.75,
      "CAGR": 8.637438779,
      "lat": 3.152875,
      "lng": 101.5407479,
      "ROI": 23.27549155
   },
   {
      "Proptype": "RUMAH SESEBUAH-REKA BENTUK SENDIRI",
      "Locality": "KEMENSAH HEIGHTS, GOMBAK",
      "Firstvalue": 5464.568701,
      "Secondvalue": 10901.04455,
      "Count": 10,
      "Year": 8.25,
      "CAGR": 8.730903511,
      "lat": 3.211171,
      "lng": 101.7612709,
      "ROI": 25.34749305
   },
   {
      "Proptype": "RUMAH TERES - TENGAH",
      "Locality": "KEMENSAH HEIGHTS, GOMBAK",
      "Firstvalue": 2972.41598,
      "Secondvalue": 5469.245403,
      "Count": 10,
      "Year": 7.25,
      "CAGR": 8.774374923,
      "lat": 3.211171,
      "lng": 101.7612709,
      "ROI": 25.34749305
   },
   {
      "Proptype": "RUMAH TERES KOS SEDERHANA - HUJUNG",
      "Locality": "TAMAN A & M, KLANG",
      "Firstvalue": 1835.535977,
      "Secondvalue": 3450.807636,
      "Count": 10,
      "Year": 7.5,
      "CAGR": 8.781333895,
      "lat": 49.2191173,
      "lng": -123.1288981,
      "ROI": 32.10396019
   },
   {
      "Proptype": "RUMAH TERES - TENGAH",
      "Locality": "TAMAN WANGI (P/L 43916), KLANG",
      "Firstvalue": 1511.856135,
      "Secondvalue": 3462.603878,
      "Count": 10,
      "Year": 9.75,
      "CAGR": 8.87095571,
      "lat": 3.0479739,
      "lng": 101.4374637,
      "ROI": 30.76527957
   },
   {
      "Proptype": "UNIT KEDIAMAN DLM KEDAI/PEJABAT/KEDIAMAN",
      "Locality": "JALAN MERLIMAU, KUALA LUMPUR",
      "Firstvalue": 1362.39782,
      "Secondvalue": 3065.395095,
      "Count": 10,
      "Year": 9.5,
      "CAGR": 8.911024662,
      "lat": 3.1371213,
      "lng": 101.7082121,
      "ROI": 9.390382996
   },
   {
      "Proptype": "RUMAH TERES - HUJUNG",
      "Locality": "TAMAN SERENDAH MAKMUR, HULU SELANGOR",
      "Firstvalue": 1783.392161,
      "Secondvalue": 3048.780488,
      "Count": 10,
      "Year": 6.25,
      "CAGR": 8.958392793,
      "lat": 3.360784,
      "lng": 101.597561,
      "ROI": 31.55820037
   },
   {
      "Proptype": "RUMAH TERES - TENGAH",
      "Locality": "TAMAN MERU MURNI (P/L 4861), KLANG",
      "Firstvalue": 2126.5424,
      "Secondvalue": 3412.969283,
      "Count": 10,
      "Year": 5.5,
      "CAGR": 8.982322951,
      "lat": 3.1382557,
      "lng": 101.4524102,
      "ROI": 34.93869918
   },
   {
      "Proptype": "RUMAH TERES - HUJUNG",
      "Locality": "TAMAN PELANGI GOMBAK, GOMBAK",
      "Firstvalue": 2207.144609,
      "Secondvalue": 4789.977892,
      "Count": 10,
      "Year": 9,
      "CAGR": 8.990637083,
      "lat": 3.207966,
      "lng": 101.6931121,
      "ROI": 25.60902099
   },
   {
      "Proptype": "RUMAH SESEBUAH-REKA BENTUK PEMAJU",
      "Locality": "TAMAN GENTING PERMAI, HULU SELANGOR",
      "Firstvalue": 1433.178072,
      "Secondvalue": 2351.887109,
      "Count": 10,
      "Year": 5.75,
      "CAGR": 8.996244232,
      "lat": 3.4657489,
      "lng": 101.6621033,
      "ROI": 41.94757974
   },
   {
      "Proptype": "RUMAH TERES KOS RENDAH - HUJUNG",
      "Locality": "TAMAN TASIK SEMENYIH, ULU LANGAT",
      "Firstvalue": 1252.84738,
      "Secondvalue": 2792.429414,
      "Count": 10,
      "Year": 9.25,
      "CAGR": 9.051264666,
      "lat": 2.946971,
      "lng": 101.8649992,
      "ROI": 24.00822943
   },
   {
      "Proptype": "RUMAH SESEBUAH-REKA BENTUK SENDIRI",
      "Locality": "SEK 13 SHAH ALAM, PETALING",
      "Firstvalue": 2804.419766,
      "Secondvalue": 6391.273781,
      "Count": 10,
      "Year": 9.5,
      "CAGR": 9.057943889,
      "lat": 3.08205,
      "lng": 101.5388921,
      "ROI": 33.69397569
   },
   {
      "Proptype": "RUMAH TERES - TENGAH",
      "Locality": "TAMAN KEMBARA (P/L 1151), KLANG",
      "Firstvalue": 2307.791538,
      "Secondvalue": 3884.638022,
      "Count": 10,
      "Year": 6,
      "CAGR": 9.066739432,
      "lat": "NA",
      "lng": "NA",
      "ROI": 39.60131327
   },
   {
      "Proptype": "RUMAH BERKEMBAR",
      "Locality": "SIERRA DAMANSARA, PETALING",
      "Firstvalue": 7230.160096,
      "Secondvalue": 10457.82013,
      "Count": 10,
      "Year": 4.25,
      "CAGR": 9.07269896,
      "lat": 3.151583,
      "lng": 101.588058,
      "ROI": 15.46352123
   },
   {
      "Proptype": "RUMAH TERES - TEPI",
      "Locality": "TAMAN SETAPAK INDAH, KUALA LUMPUR",
      "Firstvalue": 3167.232903,
      "Secondvalue": 6077.256077,
      "Count": 10,
      "Year": 7.5,
      "CAGR": 9.077959432,
      "lat": 3.215861,
      "lng": 101.723045,
      "ROI": 40.37996643
   },
   {
      "Proptype": "RUMAH TERES KOS RENDAH - TENGAH",
      "Locality": "TAMAN PANDAN JAYA, ULU LANGAT",
      "Firstvalue": 3536.829156,
      "Secondvalue": 8313.963883,
      "Count": 10,
      "Year": 9.75,
      "CAGR": 9.161924801,
      "lat": 3.13536,
      "lng": 101.74014,
      "ROI": 39.93501511
   },
   {
      "Proptype": "RUMAH TERES - TENGAH",
      "Locality": "DESA CAMELIA 1& 2, SEPANG",
      "Firstvalue": 2391.994798,
      "Secondvalue": 4139.328183,
      "Count": 10,
      "Year": 6.25,
      "CAGR": 9.170962872,
      "lat": 2.9463785,
      "lng": 101.7379743,
      "ROI": 36.4284892
   },
   {
      "Proptype": "RUMAH TERES - TENGAH",
      "Locality": "TAMAN ANGSANA, KLANG",
      "Firstvalue": 1295.594977,
      "Secondvalue": 2292.206498,
      "Count": 10,
      "Year": 6.5,
      "CAGR": 9.174368827,
      "lat": 2.9898866,
      "lng": 101.4317324,
      "ROI": 24.90585524
   },
   {
      "Proptype": "RUMAH TERES - HUJUNG",
      "Locality": "BANDAR TASIK SELATAN, KUALA LUMPUR",
      "Firstvalue": 3014.993481,
      "Secondvalue": 5980.139354,
      "Count": 10,
      "Year": 7.75,
      "CAGR": 9.238923049,
      "lat": 3.072012,
      "lng": 101.70958,
      "ROI": 35.97535531
   },
   {
      "Proptype": "RUMAH TERES - TENGAH",
      "Locality": "PUNCAK BESTARI, KUALA SELANGOR",
      "Firstvalue": 2885.624344,
      "Secondvalue": 3768.80491,
      "Count": 10,
      "Year": 3,
      "CAGR": 9.308672815,
      "lat": 3.23753,
      "lng": 101.4300399,
      "ROI": 39.19856956
   },
   {
      "Proptype": "RUMAH TERES KOS SEDERHANA - TEPI",
      "Locality": "TAMAN CHERAS PERDANA, ULU LANGAT",
      "Firstvalue": 2576.581735,
      "Secondvalue": 5024.360536,
      "Count": 10,
      "Year": 7.5,
      "CAGR": 9.312942015,
      "lat": 3.0459748,
      "lng": 101.7674947,
      "ROI": 40.35220839
   },
   {
      "Proptype": "RUMAH BERKEMBAR",
      "Locality": "SEK 4 PETALING JAYA, PETALING",
      "Firstvalue": 3459.628666,
      "Secondvalue": 7718.768353,
      "Count": 10,
      "Year": 9,
      "CAGR": 9.326206812,
      "lat": 3.091262,
      "lng": 101.6448592,
      "ROI": 31.02156115
   },
   {
      "Proptype": "RUMAH TERES KOS RENDAH - TENGAH",
      "Locality": "TAMAN SERI CHEEDING, KUALA LANGAT",
      "Firstvalue": 1037.344398,
      "Secondvalue": 2074.688797,
      "Count": 10,
      "Year": 7.75,
      "CAGR": 9.355990876,
      "lat": 2.856544,
      "lng": 101.516836,
      "ROI": 26.49900645
   },
   {
      "Proptype": "RUMAH TERES - TEPI",
      "Locality": "TAMAN INTAN BAIDURI, KUALA LUMPUR",
      "Firstvalue": 3443.800294,
      "Secondvalue": 6735.821097,
      "Count": 10,
      "Year": 7.5,
      "CAGR": 9.357106676,
      "lat": 3.233433,
      "lng": 101.6477258,
      "ROI": 25.65816896
   },
   {
      "Proptype": "RUMAH TERES - TEPI",
      "Locality": "BANDAR BARU WANGSA MAJU, KUALA LUMPUR",
      "Firstvalue": 3271.10956,
      "Secondvalue": 7163.583605,
      "Count": 10,
      "Year": 8.75,
      "CAGR": 9.37218414,
      "lat": 3.2040337,
      "lng": 101.7379295,
      "ROI": 15.82903685
   },
   {
      "Proptype": "RUMAH TERES KOS SEDERHANA RENDAH-TENGAH",
      "Locality": "DESA SERDANG, ULU LANGAT",
      "Firstvalue": 1472.765775,
      "Secondvalue": 3085.667885,
      "Count": 10,
      "Year": 8.25,
      "CAGR": 9.379318166,
      "lat": 3.0095948,
      "lng": 101.7306057,
      "ROI": 18.41088772
   },
   {
      "Proptype": "RUMAH TERES - TENGAH",
      "Locality": "TAMAN MELAWATI (KLANG), KLANG",
      "Firstvalue": 1041.490373,
      "Secondvalue": 2056.40423,
      "Count": 10,
      "Year": 7.5,
      "CAGR": 9.49486787,
      "lat": 3.0102467,
      "lng": 101.4686396,
      "ROI": 37.44142554
   },
   {
      "Proptype": "RUMAH TERES - TENGAH",
      "Locality": "DESA DAHLIA, ULU LANGAT",
      "Firstvalue": 1430.055125,
      "Secondvalue": 3355.436606,
      "Count": 10,
      "Year": 9.25,
      "CAGR": 9.658635821,
      "lat": 2.978216,
      "lng": 101.7603158,
      "ROI": 29.09945007
   },
   {
      "Proptype": "RUMAH BERKEMBAR",
      "Locality": "TAMAN NILAM KUALA SELANGOR, KUALA SELANGOR",
      "Firstvalue": 2925.320929,
      "Secondvalue": 3605.942593,
      "Count": 10,
      "Year": 2.25,
      "CAGR": 9.742711015,
      "lat": 3.383094,
      "lng": 101.2303091,
      "ROI": 31.72551325
   },
   {
      "Proptype": "RUMAH TERES KOS RENDAH - TENGAH",
      "Locality": "TAMAN WIRA KLANG, KLANG",
      "Firstvalue": 1153.291687,
      "Secondvalue": 2498.798654,
      "Count": 10,
      "Year": 8.25,
      "CAGR": 9.825217737,
      "lat": 3.131689,
      "lng": 101.439761,
      "ROI": 33.81226196
   },
   {
      "Proptype": "RUMAH TERES - HUJUNG",
      "Locality": "TAMAN CHERAS PERMATA, ULU LANGAT",
      "Firstvalue": 2959.053103,
      "Secondvalue": 6434.108527,
      "Count": 10,
      "Year": 8.25,
      "CAGR": 9.872540482,
      "lat": 3.083337,
      "lng": 101.760323,
      "ROI": 42.75546658
   },
   {
      "Proptype": "RUMAH TERES KOS RENDAH - TENGAH",
      "Locality": "TAMAN PERMATA, GOMBAK",
      "Firstvalue": 1929.324868,
      "Secondvalue": 4836.309524,
      "Count": 10,
      "Year": 9.75,
      "CAGR": 9.883941312,
      "lat": 3.206724,
      "lng": 101.752124,
      "ROI": 20.02120458
   },
   {
      "Proptype": "RUMAH TERES - TEPI",
      "Locality": "TAMAN BIDARA GOMBAK, GOMBAK",
      "Firstvalue": 2183.406114,
      "Secondvalue": 5355.230275,
      "Count": 10,
      "Year": 9.5,
      "CAGR": 9.904409895,
      "lat": 3.244544,
      "lng": 101.6415878,
      "ROI": 31.21989556
   },
   {
      "Proptype": "RUMAH TERES - TEPI",
      "Locality": "UKAY PERDANA, GOMBAK",
      "Firstvalue": 2688.172043,
      "Secondvalue": 5733.308674,
      "Count": 10,
      "Year": 8,
      "CAGR": 9.930583463,
      "lat": 3.205666,
      "lng": 101.777418,
      "ROI": 30.49708264
   },
   {
      "Proptype": "RUMAH TERES MEWAH - TENGAH",
      "Locality": "TAMAN MUTIARA GOMBAK, GOMBAK",
      "Firstvalue": 2724.768837,
      "Secondvalue": 4587.935429,
      "Count": 10,
      "Year": 5.5,
      "CAGR": 9.93682899,
      "lat": 3.2367859,
      "lng": 101.7179114,
      "ROI": 29.81479335
   },
   {
      "Proptype": "RUMAH TERES KOS SEDERHANA",
      "Locality": "TAMAN KAPAR SETIA, KLANG",
      "Firstvalue": 1330.919932,
      "Secondvalue": 3407.155026,
      "Count": 10,
      "Year": 9.75,
      "CAGR": 10.12115699,
      "lat": 3.136095,
      "lng": 101.3937368,
      "ROI": 28.2125973
   },
   {
      "Proptype": "RUMAH SESEBUAH-REKA BENTUK PEMAJU",
      "Locality": "TAMAN SERI BATANG KALI, HULU SELANGOR",
      "Firstvalue": 726.0519046,
      "Secondvalue": 1341.021859,
      "Count": 10,
      "Year": 6.25,
      "CAGR": 10.31508655,
      "lat": 3.475105,
      "lng": 101.6401421,
      "ROI": 33.17405975
   },
   {
      "Proptype": "RUMAH TERES - TEPI",
      "Locality": "LUCKY GARDEN (JLN BANGSAR), KUALA LUMPUR",
      "Firstvalue": 3941.14556,
      "Secondvalue": 8275.232945,
      "Count": 10,
      "Year": 7.5,
      "CAGR": 10.39626163,
      "lat": 3.1239464,
      "lng": 101.6771798,
      "ROI": 33.29919715
   },
   {
      "Proptype": "RUMAH TERES - TEPI",
      "Locality": "TAMAN BENTARA, KUALA LANGAT",
      "Firstvalue": 2105.011362,
      "Secondvalue": 3632.938644,
      "Count": 10,
      "Year": 5.5,
      "CAGR": 10.43114294,
      "lat": 2.9355,
      "lng": 101.500519,
      "ROI": -59.58923546
   },
   {
      "Proptype": "RUMAH TERES KOS SEDERHANA - TENGAH",
      "Locality": "KAJANG PRIMA, ULU LANGAT",
      "Firstvalue": 1508.894536,
      "Secondvalue": 3970.775095,
      "Count": 10,
      "Year": 9.75,
      "CAGR": 10.43306307,
      "lat": 2.97932,
      "lng": 101.813679,
      "ROI": 35.98557947
   },
   {
      "Proptype": "RUMAH BERKEMBAR",
      "Locality": "TAMAN WATERFALL, GOMBAK",
      "Firstvalue": 1854.892659,
      "Secondvalue": 4008.245534,
      "Count": 10,
      "Year": 7.75,
      "CAGR": 10.45332109,
      "lat": 3.326732,
      "lng": 101.573329,
      "ROI": 38.80792095
   },
   {
      "Proptype": "RUMAH TERES - TENGAH",
      "Locality": "SEK 12 BANDAR BARU BANGI, SEPANG",
      "Firstvalue": 1928.59898,
      "Secondvalue": 4285.714286,
      "Count": 10,
      "Year": 8,
      "CAGR": 10.49628078,
      "lat": 2.9477133,
      "lng": 101.7502495,
      "ROI": 37.16766291
   },
   {
      "Proptype": "RUMAH TERES - TENGAH",
      "Locality": "TAMAN BUKIT NAGA P/L 2927, KLANG",
      "Firstvalue": 1625.845702,
      "Secondvalue": 4041.115762,
      "Count": 10,
      "Year": 9,
      "CAGR": 10.64601416,
      "lat": "NA",
      "lng": "NA",
      "ROI": 37.43387412
   },
   {
      "Proptype": "RUMAH TERES - HUJUNG",
      "Locality": "TAMAN BUKIT KINRARA, PETALING",
      "Firstvalue": 3048.780488,
      "Secondvalue": 7029.132791,
      "Count": 10,
      "Year": 8.25,
      "CAGR": 10.65544754,
      "lat": 3.043732,
      "lng": 101.635758,
      "ROI": 33.95849228
   },
   {
      "Proptype": "RUMAH TERES - HUJUNG",
      "Locality": "TAMAN SERI BINTANG, KUALA LUMPUR",
      "Firstvalue": 3780.828292,
      "Secondvalue": 9702.187064,
      "Count": 10,
      "Year": 9.25,
      "CAGR": 10.72527747,
      "lat": 3.188006,
      "lng": 101.6490931,
      "ROI": 44.51119557
   },
   {
      "Proptype": "RUMAH TERES - TENGAH",
      "Locality": "MEDAN BATU CAVES, GOMBAK",
      "Firstvalue": 2552.262533,
      "Secondvalue": 4966.746083,
      "Count": 10,
      "Year": 6.5,
      "CAGR": 10.78579901,
      "lat": 3.234226,
      "lng": 101.6738258,
      "ROI": 33.21662072
   },
   {
      "Proptype": "RUMAH TERES KOS SEDERHANA - TENGAH",
      "Locality": "TAMAN INDAH JLN TEPI SUNGAI, KLANG",
      "Firstvalue": 1153.291687,
      "Secondvalue": 2197.802198,
      "Count": 10,
      "Year": 6.25,
      "CAGR": 10.86843335,
      "lat": 3.0471979,
      "lng": 101.4306554,
      "ROI": 10.38511228
   },
   {
      "Proptype": "RUMAH TERES KOS SEDERHANA - TENGAH",
      "Locality": "TAMAN GARING JAYA, GOMBAK",
      "Firstvalue": 1605.272051,
      "Secondvalue": 3886.448124,
      "Count": 10,
      "Year": 8.5,
      "CAGR": 10.9626879,
      "lat": 3.317529,
      "lng": 101.5639391,
      "ROI": 33.32626317
   },
   {
      "Proptype": "RUMAH TERES - TENGAH",
      "Locality": "TAMAN RAJAWALI, KUALA LUMPUR",
      "Firstvalue": 2093.101139,
      "Secondvalue": 2787.928427,
      "Count": 10,
      "Year": 2.75,
      "CAGR": 10.9863585,
      "lat": 3.09561,
      "lng": 101.74248,
      "ROI": 31.42245801
   },
   {
      "Proptype": "RUMAH BERKELOMPOK",
      "Locality": "DUTA TROPIKA, KUALA LUMPUR",
      "Firstvalue": 8502.960641,
      "Secondvalue": 13981.61418,
      "Count": 10,
      "Year": 4.75,
      "CAGR": 11.03783308,
      "lat": 3.169842,
      "lng": 101.6659951,
      "ROI": 19.55393419
   },
   {
      "Proptype": "RUMAH BERKEMBAR",
      "Locality": "CASTLEFIELD GARDEN, KUALA LUMPUR",
      "Firstvalue": 2172.539106,
      "Secondvalue": 5495.480817,
      "Count": 10,
      "Year": 8.75,
      "CAGR": 11.18891605,
      "lat": 3.069509,
      "lng": 101.705586,
      "ROI": 31.42597708
   },
   {
      "Proptype": "RUMAH TERES KOS RENDAH - TEPI",
      "Locality": "BANDAR BARU SERI PETALING, KUALA LUMPUR",
      "Firstvalue": 3203.588019,
      "Secondvalue": 6407.176037,
      "Count": 10,
      "Year": 6.5,
      "CAGR": 11.25314761,
      "lat": 3.068411,
      "lng": 101.6856335,
      "ROI": 32.5779905
   },
   {
      "Proptype": "RUMAH TERES - TENGAH",
      "Locality": "TAMAN INDAH, KUALA LUMPUR",
      "Firstvalue": 2472.564693,
      "Secondvalue": 6889.640486,
      "Count": 10,
      "Year": 9.5,
      "CAGR": 11.39026888,
      "lat": 3.21894,
      "lng": 101.6361551,
      "ROI": 32.80540917
   },
   {
      "Proptype": "RUMAH TERES - TENGAH",
      "Locality": "TAMAN RAMAL INDAH, ULU LANGAT",
      "Firstvalue": 1789.976134,
      "Secondvalue": 4364.50205,
      "Count": 10,
      "Year": 8.25,
      "CAGR": 11.40885025,
      "lat": 2.982188,
      "lng": 101.7568778,
      "ROI": 32.4961836
   },
   {
      "Proptype": "RUMAH TERES - HUJUNG",
      "Locality": "TAMAN ALAM JAYA, ULU LANGAT",
      "Firstvalue": 971.9747287,
      "Secondvalue": 2132.650885,
      "Count": 10,
      "Year": 7.25,
      "CAGR": 11.44767328,
      "lat": 3.081291,
      "lng": 101.765633,
      "ROI": 23.9826602
   },
   {
      "Proptype": "RUMAH TERES - TEPI",
      "Locality": "SEKSYEN 6 KOTA DAMANSARA, PETALING",
      "Firstvalue": 3008.811519,
      "Secondvalue": 7163.836951,
      "Count": 10,
      "Year": 8,
      "CAGR": 11.4535327,
      "lat": 3.156324,
      "lng": 101.5766438,
      "ROI": 30.51067966
   },
   {
      "Proptype": "RUMAH TERES KOS SEDERHANA - TENGAH",
      "Locality": "TAMAN INDAH (CHERAS), ULU LANGAT",
      "Firstvalue": 2362.087009,
      "Secondvalue": 6278.965466,
      "Count": 10,
      "Year": 9,
      "CAGR": 11.47485381,
      "lat": 3.043624,
      "lng": 101.7706838,
      "ROI": 27.86011695
   },
   {
      "Proptype": "RUMAH TERES - TENGAH",
      "Locality": "DESA BAIDURI HARMONI, SEPANG",
      "Firstvalue": 1757.575758,
      "Secondvalue": 3419.824123,
      "Count": 10,
      "Year": 6,
      "CAGR": 11.73304117,
      "lat": 2.79613,
      "lng": 101.7259589,
      "ROI": 41.90443448
   },
   {
      "Proptype": "PANGSAPURI",
      "Locality": "TAMAN TROPIKA, ULU LANGAT",
      "Firstvalue": 2625,
      "Secondvalue": 3571.428571,
      "Count": 10,
      "Year": 2.75,
      "CAGR": 11.84659979,
      "lat": 2.9420863,
      "lng": 101.7897704,
      "ROI": 31.00544928
   },
   {
      "Proptype": "RUMAH TERES - TEPI",
      "Locality": "BANDAR BUKIT PUCHONG SEPANG, SEPANG",
      "Firstvalue": 1823.176216,
      "Secondvalue": 5445.510857,
      "Count": 10,
      "Year": 9.75,
      "CAGR": 11.87665819,
      "lat": 2.976648,
      "lng": 101.622875,
      "ROI": 30.87465534
   },
   {
      "Proptype": "RUMAH BERKEMBAR",
      "Locality": "TAMAN MERU DAMAI, KLANG",
      "Firstvalue": 2563.629657,
      "Secondvalue": 5655.969507,
      "Count": 10,
      "Year": 7,
      "CAGR": 11.96779105,
      "lat": 3.134167,
      "lng": 101.444504,
      "ROI": 30.72488749
   },
   {
      "Proptype": "RUMAH TERES - TENGAH",
      "Locality": "TAMAN JOHAN SETIA PERMAI, KLANG",
      "Firstvalue": 1599.069632,
      "Secondvalue": 4215.72903,
      "Count": 10,
      "Year": 8.5,
      "CAGR": 12.08049409,
      "lat": "NA",
      "lng": "NA",
      "ROI": 40.78210809
   },
   {
      "Proptype": "RUMAH PANGSA KOS SEDERHANA",
      "Locality": "KLANG LAMA BUSINESS PARK, KUALA LUMPUR",
      "Firstvalue": 1500,
      "Secondvalue": 2177.419355,
      "Count": 10,
      "Year": 3.25,
      "CAGR": 12.15025162,
      "lat": 3.0852372,
      "lng": 101.6729069,
      "ROI": 28.86412236
   },
   {
      "Proptype": "RUMAH SESEBUAH-REKA BENTUK PEMAJU",
      "Locality": "TAMAN SEPAKAT GOMBAK, GOMBAK",
      "Firstvalue": 2141.259188,
      "Secondvalue": 4525.97912,
      "Count": 10,
      "Year": 6.5,
      "CAGR": 12.20356674,
      "lat": 3.179438,
      "lng": 101.755877,
      "ROI": 39.04273335
   },
   {
      "Proptype": "RUMAH TERES - TENGAH",
      "Locality": "TAMAN TENAGA BAKTI (P/L 7230), KLANG",
      "Firstvalue": 1606.683805,
      "Secondvalue": 3712.959657,
      "Count": 10,
      "Year": 7.25,
      "CAGR": 12.24781748,
      "lat": 3.0640596,
      "lng": 101.4228084,
      "ROI": 41.80644334
   },
   {
      "Proptype": "RUMAH BANDAR",
      "Locality": "TAMAN SUBANG PERMATA, PETALING",
      "Firstvalue": 2862.841275,
      "Secondvalue": 3830.439224,
      "Count": 10,
      "Year": 2.5,
      "CAGR": 12.35192617,
      "lat": 3.135232,
      "lng": 101.526736,
      "ROI": 43.44975301
   },
   {
      "Proptype": "RUMAH TERES - TENGAH",
      "Locality": "TAMAN BUKIT NAGA P/L 2922, KLANG",
      "Firstvalue": 1816.239316,
      "Secondvalue": 4487.179487,
      "Count": 10,
      "Year": 7.75,
      "CAGR": 12.37867793,
      "lat": 2.990776,
      "lng": 101.509754,
      "ROI": 44.86872595
   },
   {
      "Proptype": "RUMAH TERES KOS RENDAH - TENGAH",
      "Locality": "TAMAN BANDAR MELAWATI, KUALA SELANGOR",
      "Firstvalue": 1078.490114,
      "Secondvalue": 2596.365089,
      "Count": 10,
      "Year": 7.5,
      "CAGR": 12.4276878,
      "lat": 3.3386652,
      "lng": 101.2448927,
      "ROI": 33.03252754
   },
   {
      "Proptype": "RUMAH TERES - TENGAH",
      "Locality": "TAMAN BINTANG MAS, SEPANG",
      "Firstvalue": 1506.359457,
      "Secondvalue": 4610.298206,
      "Count": 10,
      "Year": 9.5,
      "CAGR": 12.49594911,
      "lat": 2.856839,
      "lng": 101.675105,
      "ROI": 37.74480319
   },
   {
      "Proptype": "RUMAH TERES - TEPI",
      "Locality": "TAMAN SUBANG INDAH PJS 10, PETALING",
      "Firstvalue": 1786.085151,
      "Secondvalue": 5308.344009,
      "Count": 10,
      "Year": 9.25,
      "CAGR": 12.49708946,
      "lat": 3.0757017,
      "lng": 101.5994249,
      "ROI": 35.79109234
   },
   {
      "Proptype": "RUMAH TERES - TEPI",
      "Locality": "TAMAN DESA JENJAROM, KUALA LANGAT",
      "Firstvalue": 1160.766106,
      "Secondvalue": 3264.654672,
      "Count": 10,
      "Year": 8.75,
      "CAGR": 12.5446515,
      "lat": 2.8807653,
      "lng": 101.492665,
      "ROI": 37.82111545
   },
   {
      "Proptype": "RUMAH TERES KOS RENDAH - TENGAH",
      "Locality": "DESA MERPATI, SEPANG",
      "Firstvalue": 1227.410918,
      "Secondvalue": 3398.984081,
      "Count": 10,
      "Year": 8.5,
      "CAGR": 12.73071272,
      "lat": 2.778749,
      "lng": 101.751854,
      "ROI": 32.14622151
   },
   {
      "Proptype": "RUMAH TERES - TEPI",
      "Locality": "TAMAN PINGGIRAN PUTRA SEKSYEN 2, PETALING",
      "Firstvalue": 2530.834866,
      "Secondvalue": 5890.746025,
      "Count": 10,
      "Year": 7,
      "CAGR": 12.82756432,
      "lat": 2.9912231,
      "lng": 101.6762855,
      "ROI": 36.82091092
   },
   {
      "Proptype": "RUMAH TERES - TENGAH",
      "Locality": "TAMAN SERI RANTAU (P/L 2449), KLANG",
      "Firstvalue": 1660.029582,
      "Secondvalue": 3640.91478,
      "Count": 10,
      "Year": 6.5,
      "CAGR": 12.84338507,
      "lat": 3.05807,
      "lng": 101.399747,
      "ROI": 41.42097881
   },
   {
      "Proptype": "RUMAH PANGSA KOS RENDAH",
      "Locality": "TAMAN PERANGSANG, PETALING",
      "Firstvalue": 967.121578,
      "Secondvalue": 2058.281876,
      "Count": 10,
      "Year": 6.25,
      "CAGR": 12.84538544,
      "lat": 3.0717331,
      "lng": 101.6358205,
      "ROI": 24.67502151
   },
   {
      "Proptype": "RUMAH TERES - TENGAH",
      "Locality": "TAMAN PADI EMAS, KUALA SELANGOR",
      "Firstvalue": 1265.803073,
      "Secondvalue": 3873.933027,
      "Count": 10,
      "Year": 9.25,
      "CAGR": 12.85411552,
      "lat": 3.416708,
      "lng": 101.1889789,
      "ROI": 28.56625917
   },
   {
      "Proptype": "RUMAH SESEBUAH-REKA BENTUK PEMAJU",
      "Locality": "SERI PANTAI DALAM, KUALA LUMPUR",
      "Firstvalue": 3891.050584,
      "Secondvalue": 8049.678013,
      "Count": 10,
      "Year": 6,
      "CAGR": 12.88041707,
      "lat": 3.1057793,
      "lng": 101.6739268,
      "ROI": 29.23943506
   },
   {
      "Proptype": "RUMAH BERKEMBAR",
      "Locality": "TAMAN UNIVERSITI INDAH, PETALING",
      "Firstvalue": 1643.732682,
      "Secondvalue": 3417.79074,
      "Count": 10,
      "Year": 6,
      "CAGR": 12.97587486,
      "lat": 3.004747,
      "lng": 101.690483,
      "ROI": 34.77733989
   },
   {
      "Proptype": "RUMAH TERES KOS RENDAH - TEPI",
      "Locality": "TAMAN CEMPAKA SARI, KLANG",
      "Firstvalue": 1215.559157,
      "Secondvalue": 2823.363332,
      "Count": 10,
      "Year": 6.75,
      "CAGR": 13.29763388,
      "lat": 3.079884,
      "lng": 101.4151579,
      "ROI": 30.5998014
   },
   {
      "Proptype": "RUMAH TERES - HUJUNG",
      "Locality": "PINGGIRAN BATU CAVES, GOMBAK",
      "Firstvalue": 2938.362717,
      "Secondvalue": 7516.741834,
      "Count": 10,
      "Year": 7.5,
      "CAGR": 13.34174567,
      "lat": 3.252888,
      "lng": 101.693885,
      "ROI": 21.79423149
   },
   {
      "Proptype": "RUMAH BERKEMBAR",
      "Locality": "TAMAN SERI PUTRA MAS, GOMBAK",
      "Firstvalue": 2544.725478,
      "Secondvalue": 5398.590938,
      "Count": 10,
      "Year": 6,
      "CAGR": 13.3547997,
      "lat": 3.25016,
      "lng": 101.555582,
      "ROI": 47.58437704
   },
   {
      "Proptype": "RUMAH PANGSA KOS RENDAH",
      "Locality": "PANGSAPURI SERI PELANGI, PETALING",
      "Firstvalue": 695.5945677,
      "Secondvalue": 1909.836066,
      "Count": 10,
      "Year": 8,
      "CAGR": 13.45665848,
      "lat": 2.982796,
      "lng": 101.604848,
      "ROI": 42.4600086
   },
   {
      "Proptype": "RUMAH TERES KOS SEDERHANA - TENGAH",
      "Locality": "TAMAN PENDAMAR INDAH 3, KLANG",
      "Firstvalue": 1514.004542,
      "Secondvalue": 3700.899992,
      "Count": 10,
      "Year": 7,
      "CAGR": 13.6198758,
      "lat": 2.982161,
      "lng": 101.4241489,
      "ROI": 29.57033199
   },
   {
      "Proptype": "RUMAH BERKEMBAR",
      "Locality": "DESA SALAK DAMAI (P/LOT 1634 MK LABU), SEPANG",
      "Firstvalue": 1970.493129,
      "Secondvalue": 3738.884398,
      "Count": 10,
      "Year": 5,
      "CAGR": 13.66674473,
      "lat": 2.796637,
      "lng": 101.7332989,
      "ROI": 42.1191454
   },
   {
      "Proptype": "RUMAH PANGSA KOS SEDERHANA",
      "Locality": "TRICOURT (TAMAN SERI SENTOSA ), KUALA LUMPUR",
      "Firstvalue": 1287.5,
      "Secondvalue": 3062.5,
      "Count": 10,
      "Year": 6.75,
      "CAGR": 13.69789485,
      "lat": 3.070707,
      "lng": 101.651631,
      "ROI": 35.01222989
   },
   {
      "Proptype": "RUMAH SESEBUAH-REKA BENTUK SENDIRI",
      "Locality": "BATANG BERJUNTAI, KUALA SELANGOR",
      "Firstvalue": 747.5182394,
      "Secondvalue": 1960.784314,
      "Count": 10,
      "Year": 7.5,
      "CAGR": 13.72110492,
      "lat": 3.377953,
      "lng": 101.4062371,
      "ROI": 44.86490224
   },
   {
      "Proptype": "RUMAH TERES - HUJUNG",
      "Locality": "TAMAN BENTARA, KUALA LANGAT",
      "Firstvalue": 2308.689499,
      "Secondvalue": 5194.642634,
      "Count": 10,
      "Year": 6.25,
      "CAGR": 13.85455853,
      "lat": 2.9355,
      "lng": 101.500519,
      "ROI": -59.58923546
   },
   {
      "Proptype": "RUMAH TERES - TENGAH",
      "Locality": "TAMAN SERI RASA (PECAHAN LOT 3569), HULU SELANGOR",
      "Firstvalue": 1519.684097,
      "Secondvalue": 2726.697796,
      "Count": 10,
      "Year": 4.5,
      "CAGR": 13.87243235,
      "lat": 3.497699,
      "lng": 101.6400802,
      "ROI": 36.4599125
   },
   {
      "Proptype": "RUMAH TERES KOS SEDERHANA - TENGAH",
      "Locality": "TAMAN ASA JAYA, ULU LANGAT",
      "Firstvalue": 1166.446901,
      "Secondvalue": 3550.055787,
      "Count": 10,
      "Year": 8.5,
      "CAGR": 13.9900864,
      "lat": 2.986887,
      "lng": 101.816806,
      "ROI": 21.50485535
   },
   {
      "Proptype": "RUMAH TERES KOS RENDAH - TENGAH",
      "Locality": "RUMAH MURAH SPG MORIB, KUALA LANGAT",
      "Firstvalue": 562.1337161,
      "Secondvalue": 1661.945231,
      "Count": 10,
      "Year": 8.25,
      "CAGR": 14.04175384,
      "lat": 2.751226,
      "lng": 101.4436451,
      "ROI": 26.43934994
   },
   {
      "Proptype": "RUMAH TERES - TEPI",
      "Locality": "BANDAR BARU SELAYANG, GOMBAK",
      "Firstvalue": 1935.104341,
      "Secondvalue": 5599.800896,
      "Count": 10,
      "Year": 8,
      "CAGR": 14.20458101,
      "lat": 3.263739,
      "lng": 101.6538245,
      "ROI": 21.65797345
   },
   {
      "Proptype": "RUMAH TERES KOS SEDERHANA - TENGAH",
      "Locality": "TAMAN KOPERASI CUEPACS, ULU LANGAT",
      "Firstvalue": 1577.705692,
      "Secondvalue": 5603.066942,
      "Count": 10,
      "Year": 9.5,
      "CAGR": 14.2712092,
      "lat": 3.027316,
      "lng": 101.7730991,
      "ROI": 27.76822683
   },
   {
      "Proptype": "RUMAH BERKEMBAR",
      "Locality": "TAMAN KAJANG MEWAH, ULU LANGAT",
      "Firstvalue": 3150.7267,
      "Secondvalue": 7297.489582,
      "Count": 10,
      "Year": 6.25,
      "CAGR": 14.38314675,
      "lat": 2.97486,
      "lng": 101.7794639,
      "ROI": 32.65482076
   },
   {
      "Proptype": "RUMAH TERES - TENGAH",
      "Locality": "BATU 6 JLN MERU, KLANG",
      "Firstvalue": 1088.059701,
      "Secondvalue": 3206.229245,
      "Count": 10,
      "Year": 8,
      "CAGR": 14.46368695,
      "lat": "NA",
      "lng": "NA",
      "ROI": 27.71408206
   },
   {
      "Proptype": "RUMAH SESEBUAH-REKA BENTUK SENDIRI",
      "Locality": "KAMPUNG MELAYU SUBANG, PETALING",
      "Firstvalue": 2683.080808,
      "Secondvalue": 8529.65069,
      "Count": 10,
      "Year": 8.5,
      "CAGR": 14.57604389,
      "lat": 3.1536619,
      "lng": 101.5329,
      "ROI": 44.21438197
   },
   {
      "Proptype": "RUMAH TERES - TENGAH",
      "Locality": "P/L 3679 JLN NENAS, KLANG",
      "Firstvalue": 2202.643172,
      "Secondvalue": 3671.071953,
      "Count": 10,
      "Year": 3.75,
      "CAGR": 14.5934162,
      "lat": 3.1418584,
      "lng": 101.4094427,
      "ROI": 59.4317624
   },
   {
      "Proptype": "RUMAH TERES - TEPI",
      "Locality": "TAMAN SELAYANG JAYA, GOMBAK",
      "Firstvalue": 2355.549932,
      "Secondvalue": 6157.536985,
      "Count": 10,
      "Year": 7,
      "CAGR": 14.71399054,
      "lat": 3.24066,
      "lng": 101.6479069,
      "ROI": 33.29686145
   },
   {
      "Proptype": "RUMAH TERES - TENGAH",
      "Locality": "TAMAN SERDANG RAYA SEK 2, PETALING",
      "Firstvalue": 1468.555632,
      "Secondvalue": 4405.666897,
      "Count": 10,
      "Year": 8,
      "CAGR": 14.72026904,
      "lat": 3.0449941,
      "lng": 101.7048524,
      "ROI": 35.30170303
   },
   {
      "Proptype": "RUMAH TERES MEWAH - TENGAH",
      "Locality": "INDAH GEMILANG, GOMBAK",
      "Firstvalue": 2444.661748,
      "Secondvalue": 3955.907192,
      "Count": 10,
      "Year": 3.5,
      "CAGR": 14.74191415,
      "lat": 3.256004,
      "lng": 101.6963842,
      "ROI": 56.26062947
   },
   {
      "Proptype": "RUMAH TERES KOS SEDERHANA - TEPI",
      "Locality": "BANDAR BARU SERI PETALING, KUALA LUMPUR",
      "Firstvalue": 1922.152811,
      "Secondvalue": 6006.727535,
      "Count": 10,
      "Year": 8.25,
      "CAGR": 14.81055618,
      "lat": 3.068411,
      "lng": 101.6856335,
      "ROI": 32.5779905
   },
   {
      "Proptype": "RUMAH TERES KOS SEDERHANA - TENGAH",
      "Locality": "BANDAR MAHKOTA BANTING (BROOKLANDS), KUALA LANGAT",
      "Firstvalue": 2539.098436,
      "Secondvalue": 3587.856486,
      "Count": 10,
      "Year": 2.5,
      "CAGR": 14.83180991,
      "lat": 2.831027,
      "lng": 101.5523258,
      "ROI": 52.63411564
   },
   {
      "Proptype": "RUMAH TERES KOS RENDAH - TENGAH",
      "Locality": "TAMAN WANGSA, ULU LANGAT",
      "Firstvalue": 1363.375431,
      "Secondvalue": 4448.9093,
      "Count": 10,
      "Year": 8.5,
      "CAGR": 14.92857196,
      "lat": 3.084551,
      "lng": 101.7699188,
      "ROI": 25.13599571
   },
   {
      "Proptype": "RUMAH SESEBUAH-REKA BENTUK SENDIRI",
      "Locality": "KAMPUNG MELAYU SUNGAI SERING, GOMBAK",
      "Firstvalue": 2437.597504,
      "Secondvalue": 7685.940641,
      "Count": 10,
      "Year": 8.25,
      "CAGR": 14.93511398,
      "lat": "NA",
      "lng": "NA",
      "ROI": 47.69458446
   },
   {
      "Proptype": "RUMAH TERES - TENGAH",
      "Locality": "SS 25 TAMAN BUKIT MAYANG MAS, PETALING",
      "Firstvalue": 2894.409028,
      "Secondvalue": 3103.791512,
      "Count": 10,
      "Year": 0.5,
      "CAGR": 14.99137687,
      "lat": 3.1140805,
      "lng": 101.599025,
      "ROI": 30.02732809
   },
   {
      "Proptype": "RUMAH TERES - HUJUNG",
      "Locality": "TAMAN BANGI JAYA, ULU LANGAT",
      "Firstvalue": 2097.81041,
      "Secondvalue": 5871.559633,
      "Count": 10,
      "Year": 7.25,
      "CAGR": 15.25331146,
      "lat": 2.9478794,
      "lng": 101.8338439,
      "ROI": 38.70094099
   },
   {
      "Proptype": "RUMAH TERES - HUJUNG",
      "Locality": "TAMAN DAMAI UTAMA, PETALING",
      "Firstvalue": 2507.122507,
      "Secondvalue": 4926.446408,
      "Count": 10,
      "Year": 4.75,
      "CAGR": 15.28150101,
      "lat": 3.033962,
      "lng": 101.6641789,
      "ROI": 0.357465968
   },
   {
      "Proptype": "RUMAH TERES - TEPI",
      "Locality": "TAMAN PUCHONG INDAH, PETALING",
      "Firstvalue": 2064.220183,
      "Secondvalue": 5045.87156,
      "Count": 10,
      "Year": 6.25,
      "CAGR": 15.37423314,
      "lat": 3.011548,
      "lng": 101.6067352,
      "ROI": 24.89658126
   },
   {
      "Proptype": "RUMAH PANGSA KOS SEDERHANA",
      "Locality": "TAMAN KOTA PERDANA, PETALING",
      "Firstvalue": 821.7403885,
      "Secondvalue": 1875,
      "Count": 10,
      "Year": 5.75,
      "CAGR": 15.42695569,
      "lat": 2.988779,
      "lng": 101.663937,
      "ROI": 31.45917554
   },
   {
      "Proptype": "RUMAH PANGSA KOS RENDAH",
      "Locality": "TAMAN BUKIT ANGKASA (PHASE II), KUALA LUMPUR",
      "Firstvalue": 2031.25,
      "Secondvalue": 3015.625,
      "Count": 10,
      "Year": 2.75,
      "CAGR": 15.45296087,
      "lat": 3.1103965,
      "lng": 101.66912,
      "ROI": 62.77386169
   },
   {
      "Proptype": "RUMAH TERES KOS SEDERHANA - TENGAH",
      "Locality": "TAMAN PUTRA PERDANA, SEPANG",
      "Firstvalue": 1715.367325,
      "Secondvalue": 2946.127946,
      "Count": 10,
      "Year": 3.75,
      "CAGR": 15.51503804,
      "lat": 2.945587,
      "lng": 101.608317,
      "ROI": 23.58114171
   },
   {
      "Proptype": "RUMAH BERKEMBAR",
      "Locality": "TAMAN INTAN BAIDURI (P/L 3336), SEPANG",
      "Firstvalue": 2870.934861,
      "Secondvalue": 3203.572469,
      "Count": 10,
      "Year": 0.75,
      "CAGR": 15.73950445,
      "lat": 2.8038342,
      "lng": 101.7059598,
      "ROI": 42.53530388
   },
   {
      "Proptype": "RUMAH TERES - TENGAH",
      "Locality": "TAMAN LIAN HOE, KUALA LUMPUR",
      "Firstvalue": 1770.538244,
      "Secondvalue": 5310.486441,
      "Count": 10,
      "Year": 7.5,
      "CAGR": 15.77208789,
      "lat": 3.09104,
      "lng": 101.6788241,
      "ROI": 32.1193863
   },
   {
      "Proptype": "RUMAH SESEBUAH-REKA BENTUK SENDIRI",
      "Locality": "KAMPUNG BARU SEPANG, SEPANG",
      "Firstvalue": 592.1052632,
      "Secondvalue": 1480.086114,
      "Count": 10,
      "Year": 6.25,
      "CAGR": 15.7876101,
      "lat": 2.6428863,
      "lng": 101.711065,
      "ROI": 17.61507719
   },
   {
      "Proptype": "RUMAH TERES - TENGAH",
      "Locality": "TAMAN DAYA MAJU, KLANG",
      "Firstvalue": 1468.198652,
      "Secondvalue": 3767.491927,
      "Count": 10,
      "Year": 6.25,
      "CAGR": 16.27405044,
      "lat": 3.132472,
      "lng": 101.4462461,
      "ROI": 52.08126568
   },
   {
      "Proptype": "RUMAH TERES - TEPI",
      "Locality": "TAMAN SETAPAK (SETAPAK GARDEN), KUALA LUMPUR",
      "Firstvalue": 1881.074302,
      "Secondvalue": 5287.508262,
      "Count": 10,
      "Year": 6.75,
      "CAGR": 16.5455167,
      "lat": 3.2076663,
      "lng": 101.7084981,
      "ROI": 23.03817957
   },
   {
      "Proptype": "RUMAH TERES - TEPI",
      "Locality": "TAMAN DAHLIA SEPANG, SEPANG",
      "Firstvalue": 1085.347805,
      "Secondvalue": 4440.059201,
      "Count": 10,
      "Year": 9,
      "CAGR": 16.94454835,
      "lat": 2.8308333,
      "lng": 101.7246375,
      "ROI": 39.59039842
   },
   {
      "Proptype": "RUMAH TERES - TEPI",
      "Locality": "TAMAN MELATI (P/L 1591), KUALA LANGAT",
      "Firstvalue": 1982.721994,
      "Secondvalue": 6232.294618,
      "Count": 10,
      "Year": 7.25,
      "CAGR": 17.11296771,
      "lat": 2.872021,
      "lng": 101.4914311,
      "ROI": 30.99934159
   },
   {
      "Proptype": "RUMAH TERES - TENGAH",
      "Locality": "LAMAN VIEW CYBERJAYA, SEPANG",
      "Firstvalue": 3917.758621,
      "Secondvalue": 5592.301057,
      "Count": 10,
      "Year": 2.25,
      "CAGR": 17.1359391,
      "lat": "NA",
      "lng": "NA",
      "ROI": 65.35860598
   },
   {
      "Proptype": "RUMAH BERKEMBAR",
      "Locality": "TAMAN SUNWAY UTAMA, PETALING",
      "Firstvalue": 2965.03292,
      "Secondvalue": 6498.70229,
      "Count": 10,
      "Year": 4.75,
      "CAGR": 17.96325906,
      "lat": 3.0652525,
      "lng": 101.6125488,
      "ROI": 24.02253751
   },
   {
      "Proptype": "RUMAH TERES - TENGAH",
      "Locality": "P/L 3236, KLANG",
      "Firstvalue": 1127.07805,
      "Secondvalue": 4226.542688,
      "Count": 10,
      "Year": 8,
      "CAGR": 17.96520003,
      "lat": 3.0448516,
      "lng": 101.44471,
      "ROI": 44.75792201
   },
   {
      "Proptype": "RUMAH PANGSA KOS SEDERHANA",
      "Locality": "TAMAN NAGA EMAS, KUALA LUMPUR",
      "Firstvalue": 1099.807534,
      "Secondvalue": 2612.042892,
      "Count": 10,
      "Year": 5,
      "CAGR": 18.88654958,
      "lat": 3.079095,
      "lng": 101.6982248,
      "ROI": 43.138071
   },
   {
      "Proptype": "RUMAH TERES - HUJUNG",
      "Locality": "SEK 19 PETALING JAYA, PETALING",
      "Firstvalue": 4193.709436,
      "Secondvalue": 9591.584158,
      "Count": 10,
      "Year": 4.75,
      "CAGR": 19.0256117,
      "lat": 3.1140968,
      "lng": 101.6285767,
      "ROI": 35.32000295
   },
   {
      "Proptype": "RUMAH TERES - HUJUNG",
      "Locality": "TAMAN DAMAI IMPIAN 2, ULU LANGAT",
      "Firstvalue": 1970.559065,
      "Secondvalue": 6147.121098,
      "Count": 10,
      "Year": 6.5,
      "CAGR": 19.12767434,
      "lat": 3.052512,
      "lng": 101.737202,
      "ROI": 40.62840755
   },
   {
      "Proptype": "RUMAH TERES - TENGAH",
      "Locality": "TAMAN MEDAN INDAH KUALA LANGAT, KUALA LANGAT",
      "Firstvalue": 1537.070524,
      "Secondvalue": 3126.915129,
      "Count": 10,
      "Year": 4,
      "CAGR": 19.42783923,
      "lat": 2.927577,
      "lng": 101.4715901,
      "ROI": 32.17331595
   },
   {
      "Proptype": "RUMAH TERES KOS SEDERHANA - TENGAH",
      "Locality": "TAMAN SELAYANG BAHAGIA, GOMBAK",
      "Firstvalue": 2755.436402,
      "Secondvalue": 8936.550492,
      "Count": 10,
      "Year": 6.5,
      "CAGR": 19.84287915,
      "lat": 3.235434,
      "lng": 101.6514281,
      "ROI": 33.95956336
   },
   {
      "Proptype": "RUMAH TERES KOS RENDAH - TENGAH",
      "Locality": "RUMAH MURAH SG JAROM, KUALA LANGAT",
      "Firstvalue": 959.6960856,
      "Secondvalue": 4901.960784,
      "Count": 10,
      "Year": 9,
      "CAGR": 19.86514112,
      "lat": "NA",
      "lng": "NA",
      "ROI": 43.75240058
   },
   {
      "Proptype": "RUMAH TERES - TEPI",
      "Locality": "TAMAN MALURI, KUALA LUMPUR",
      "Firstvalue": 1776.289078,
      "Secondvalue": 7282.48371,
      "Count": 10,
      "Year": 7.75,
      "CAGR": 19.96831655,
      "lat": 3.13422,
      "lng": 101.7277009,
      "ROI": 26.97181511
   },
   {
      "Proptype": "RUMAH TERES KOS SEDERHANA - TEPI",
      "Locality": "TAMAN KLANG UTAMA (P/L 6555 6556), KLANG",
      "Firstvalue": 1025.202905,
      "Secondvalue": 2375.053396,
      "Count": 10,
      "Year": 4.5,
      "CAGR": 20.52601259,
      "lat": 3.08447,
      "lng": 101.4130541,
      "ROI": 20.22338433
   },
   {
      "Proptype": "RUMAH TERES KOS RENDAH - TENGAH",
      "Locality": "PERUMAHAN KOS RENDAH VI (TAMAN RIA), SABAK BERNAM",
      "Firstvalue": 1276.354354,
      "Secondvalue": 2458.163941,
      "Count": 10,
      "Year": 3.5,
      "CAGR": 20.59397044,
      "lat": 3.515372,
      "lng": 101.0948152,
      "ROI": 76.36833104
   },
   {
      "Proptype": "RUMAH TERES - TENGAH",
      "Locality": "TAMAN SERI INDAH (PL 306), KUALA SELANGOR",
      "Firstvalue": 753.4983854,
      "Secondvalue": 2368.137783,
      "Count": 10,
      "Year": 6,
      "CAGR": 21.0284413,
      "lat": 3.379514,
      "lng": 101.400872,
      "ROI": 41.26416027
   },
   {
      "Proptype": "RUMAH SESEBUAH-REKA BENTUK SENDIRI",
      "Locality": "KAMPUNG SELAYANG PANDANG, GOMBAK",
      "Firstvalue": 1248.05942,
      "Secondvalue": 4826.10694,
      "Count": 10,
      "Year": 7,
      "CAGR": 21.31341021,
      "lat": 3.243494,
      "lng": 101.65869,
      "ROI": 49.7607586
   },
   {
      "Proptype": "RUMAH TERES - TENGAH",
      "Locality": "KAMPUNG BATU 14 PUCHONG, PETALING",
      "Firstvalue": 1287.208367,
      "Secondvalue": 5259.697567,
      "Count": 10,
      "Year": 7.25,
      "CAGR": 21.42801214,
      "lat": 2.9961732,
      "lng": 101.6314212,
      "ROI": 10.86594686
   },
   {
      "Proptype": "RUMAH TERES - TENGAH",
      "Locality": "TAMAN JED (DENGKIL), SEPANG",
      "Firstvalue": 1122.241648,
      "Secondvalue": 2835.20378,
      "Count": 10,
      "Year": 4.75,
      "CAGR": 21.5448045,
      "lat": 2.85939,
      "lng": 101.6789782,
      "ROI": 46.35147735
   },
   {
      "Proptype": "RUMAH BANDAR",
      "Locality": "INDAH GEMILANG, GOMBAK",
      "Firstvalue": 1677.933333,
      "Secondvalue": 4160.493827,
      "Count": 10,
      "Year": 4.25,
      "CAGR": 23.82062265,
      "lat": 3.256004,
      "lng": 101.6963842,
      "ROI": 56.26062947
   },
   {
      "Proptype": "RUMAH PANGSA KOS RENDAH",
      "Locality": "KAMPUNG BARU SEMENYIH, ULU LANGAT",
      "Firstvalue": 579.6621398,
      "Secondvalue": 1374.62736,
      "Count": 10,
      "Year": 4,
      "CAGR": 24.09449385,
      "lat": 2.951987,
      "lng": 101.8407319,
      "ROI": 46.76265607
   },
   {
      "Proptype": "RUMAH TERES - HUJUNG",
      "Locality": "TAMAN SERI TANJUNG (SEMENYIH), ULU LANGAT",
      "Firstvalue": 991.384908,
      "Secondvalue": 5496.183206,
      "Count": 10,
      "Year": 7.75,
      "CAGR": 24.73163981,
      "lat": 2.955615,
      "lng": 101.849791,
      "ROI": 2.852827314
   },
   {
      "Proptype": "RUMAH PANGSA KOS SEDERHANA",
      "Locality": "TAMAN SINARAN, ULU LANGAT",
      "Firstvalue": 942.0289855,
      "Secondvalue": 2421.126891,
      "Count": 10,
      "Year": 4.25,
      "CAGR": 24.87042694,
      "lat": 3.009848,
      "lng": 101.7507262,
      "ROI": 30.68797095
   },
   {
      "Proptype": "RUMAH TERES KOS RENDAH - TENGAH",
      "Locality": "TAMAN SIRAMBAI, KUALA SELANGOR",
      "Firstvalue": 1514.291122,
      "Secondvalue": 2697.331062,
      "Count": 10,
      "Year": 2.5,
      "CAGR": 25.97661973,
      "lat": "NA",
      "lng": "NA",
      "ROI": 97.47522659
   },
   {
      "Proptype": "RUMAH PANGSA KOS SEDERHANA",
      "Locality": "SERI SHAMELIN, KUALA LUMPUR",
      "Firstvalue": 1754.385965,
      "Secondvalue": 2631.578947,
      "Count": 10,
      "Year": 1.75,
      "CAGR": 26.07343233,
      "lat": 3.1205152,
      "lng": 101.7369001,
      "ROI": 37.6889308
   },
   {
      "Proptype": "RUMAH TERES KOS RENDAH - TENGAH",
      "Locality": "RUM MURAH TG MAS, SEPANG",
      "Firstvalue": 191.9590487,
      "Secondvalue": 2264.957265,
      "Count": 10,
      "Year": 9.75,
      "CAGR": 28.80522461,
      "lat": 2.6596583,
      "lng": 101.7286886,
      "ROI": 42.92865695
   },
   {
      "Proptype": "RUMAH PANGSA KOS RENDAH",
      "Locality": "TAMAN BUKIT SG LONG, ULU LANGAT",
      "Firstvalue": 1126.107477,
      "Secondvalue": 2749.027076,
      "Count": 10,
      "Year": 3.5,
      "CAGR": 29.04542775,
      "lat": 3.0365655,
      "lng": 101.7966391,
      "ROI": 21.98801793
   },
   {
      "Proptype": "RUMAH TERES KOS SEDERHANA - HUJUNG",
      "Locality": "BANDAR PUCHONG JAYA, PETALING",
      "Firstvalue": 3306.588865,
      "Secondvalue": 10333.0902,
      "Count": 10,
      "Year": 3.75,
      "CAGR": 35.50646186,
      "lat": 3.0516805,
      "lng": 101.6239056,
      "ROI": 35.23775234
   },
   {
      "Proptype": "RUMAH PANGSA KOS RENDAH",
      "Locality": "SERI BEGONIA APARTMENT, PETALING",
      "Firstvalue": 1250,
      "Secondvalue": 2656.25,
      "Count": 10,
      "Year": 2,
      "CAGR": 45.77379737,
      "lat": 3.025811,
      "lng": 101.62427,
      "ROI": 88.78246454
   },
   {
      "Proptype": "RUMAH BERKEMBAR",
      "Locality": "P/LOT 2712, SEPANG",
      "Firstvalue": 3925.246475,
      "Secondvalue": 2821.1603,
      "Count": 11,
      "Year": 1,
      "CAGR": -28.12781776,
      "lat": 2.691369,
      "lng": 101.7505271,
      "ROI": 78.35847004
   },
   {
      "Proptype": "RUMAH PANGSA KOS SEDERHANA",
      "Locality": "TAMAN SUBANG PERMATA, PETALING",
      "Firstvalue": 2180.979049,
      "Secondvalue": 1250,
      "Count": 11,
      "Year": 3.5,
      "CAGR": -14.70354035,
      "lat": 3.135232,
      "lng": 101.526736,
      "ROI": 43.44975301
   },
   {
      "Proptype": "RUMAH PANGSA KOS SEDERHANA",
      "Locality": "TAMAN PUTRA PERDANA F 2B, SEPANG",
      "Firstvalue": 1056.754807,
      "Secondvalue": 811.8201007,
      "Count": 11,
      "Year": 1.75,
      "CAGR": -13.98718092,
      "lat": 2.945587,
      "lng": 101.608317,
      "ROI": -153.9928226
   },
   {
      "Proptype": "KONDOMINIUM",
      "Locality": "WINDOWS ON THE PARK@BANDAR TUN HUSSIEN ONN, ULU LANGAT",
      "Firstvalue": 5995.654332,
      "Secondvalue": 5123.776596,
      "Count": 11,
      "Year": 1.25,
      "CAGR": -11.81334305,
      "lat": 3.0403685,
      "lng": 101.7533005,
      "ROI": -27.57511496
   },
   {
      "Proptype": "PANGSAPURI",
      "Locality": "TAMAN TIARA EAST (SEMENYIH), ULU LANGAT",
      "Firstvalue": 3534.777651,
      "Secondvalue": 2679.58951,
      "Count": 11,
      "Year": 2.5,
      "CAGR": -10.48775132,
      "lat": 2.947219,
      "lng": 101.8544209,
      "ROI": -49.27320001
   },
   {
      "Proptype": "RUMAH TERES - TENGAH",
      "Locality": "TAMAN GREENWOOD INDAH, GOMBAK",
      "Firstvalue": 1925.682904,
      "Secondvalue": 968.3823173,
      "Count": 11,
      "Year": 9,
      "CAGR": -7.353478167,
      "lat": 3.224434,
      "lng": 101.7003769,
      "ROI": 11.83010082
   },
   {
      "Proptype": "RUMAH SESEBUAH-REKA BENTUK SENDIRI",
      "Locality": "KAMPUNG AIR PANAS, HULU SELANGOR",
      "Firstvalue": 645.4495805,
      "Secondvalue": 336.3982956,
      "Count": 11,
      "Year": 9.25,
      "CAGR": -6.802452808,
      "lat": 3.592164,
      "lng": 101.6092159,
      "ROI": -155.9027044
   },
   {
      "Proptype": "RUMAH SESEBUAH-REKA BENTUK PEMAJU",
      "Locality": "CYBERJAYA (EVERGREEN GARDEN RESIDENCE), SEPANG",
      "Firstvalue": 8253.71359,
      "Secondvalue": 5407.122103,
      "Count": 11,
      "Year": 6.25,
      "CAGR": -6.54324763,
      "lat": 2.9462054,
      "lng": 101.668141,
      "ROI": 8.587270006
   },
   {
      "Proptype": "RUMAH TERES KOS RENDAH - HUJUNG",
      "Locality": "TAMAN SERI TIMAH, ULU LANGAT",
      "Firstvalue": 2680.74736,
      "Secondvalue": 1949.634444,
      "Count": 11,
      "Year": 5,
      "CAGR": -6.170487402,
      "lat": 3.020659,
      "lng": 101.7300769,
      "ROI": 10.75822914
   },
   {
      "Proptype": "RUMAH BERKEMBAR",
      "Locality": "VILLA ARMADA, KUALA LUMPUR",
      "Firstvalue": 9058.997306,
      "Secondvalue": 6693.440428,
      "Count": 11,
      "Year": 7.5,
      "CAGR": -3.954747433,
      "lat": 3.0994933,
      "lng": 101.6893338,
      "ROI": -15.57397168
   },
   {
      "Proptype": "PANGSAPURI",
      "Locality": "STARVILLE APARTMENT, PETALING",
      "Firstvalue": 5066.666667,
      "Secondvalue": 4677.92142,
      "Count": 11,
      "Year": 2,
      "CAGR": -3.91285391,
      "lat": 3.0338441,
      "lng": 101.5902087,
      "ROI": -22.1286487
   },
   {
      "Proptype": "RUMAH TERES KOS RENDAH - TEPI",
      "Locality": "PANDAMARAN JAYA, KLANG",
      "Firstvalue": 2943.650126,
      "Secondvalue": 2242.554718,
      "Count": 11,
      "Year": 7.5,
      "CAGR": -3.562136321,
      "lat": 2.9982694,
      "lng": 101.4257227,
      "ROI": -3.300440891
   },
   {
      "Proptype": "RUMAH SESEBUAH-REKA BENTUK SENDIRI",
      "Locality": "SERDANG JAYA (PKNS), PETALING",
      "Firstvalue": 1233.405095,
      "Secondvalue": 896.6036653,
      "Count": 11,
      "Year": 9.25,
      "CAGR": -3.389025717,
      "lat": 3.0149987,
      "lng": 101.7054061,
      "ROI": 30.98434797
   },
   {
      "Proptype": "RUMAH TERES KOS RENDAH - HUJUNG",
      "Locality": "TAMAN SELAYANG PKNS, GOMBAK",
      "Firstvalue": 4864.864865,
      "Secondvalue": 3968.253968,
      "Count": 11,
      "Year": 6,
      "CAGR": -3.338221912,
      "lat": 3.241535,
      "lng": 101.6741279,
      "ROI": 1.924442486
   },
   {
      "Proptype": "RUMAH TERES KOS SEDERHANA - TENGAH",
      "Locality": "TAMAN SETAPAK PERMAI, KUALA LUMPUR",
      "Firstvalue": 2715.994188,
      "Secondvalue": 2235.386163,
      "Count": 11,
      "Year": 5.75,
      "CAGR": -3.330141678,
      "lat": 3.19068,
      "lng": 101.725317,
      "ROI": 30.74628331
   },
   {
      "Proptype": "RUMAH TERES - TENGAH",
      "Locality": "TAMAN AMAN PERMAI, ULU LANGAT",
      "Firstvalue": 3072.196621,
      "Secondvalue": 3031.772981,
      "Count": 11,
      "Year": 0.5,
      "CAGR": -2.614265928,
      "lat": 2.9412623,
      "lng": 101.794939,
      "ROI": -13.57466063
   },
   {
      "Proptype": "RUMAH TERES - TENGAH",
      "Locality": "TAMAN SERI BANGI, ULU LANGAT",
      "Firstvalue": 1491.146319,
      "Secondvalue": 1164.958062,
      "Count": 11,
      "Year": 9.5,
      "CAGR": -2.565055966,
      "lat": 2.89952,
      "lng": 101.7800201,
      "ROI": -2.766639106
   },
   {
      "Proptype": "RUMAH TERES - TENGAH",
      "Locality": "CYBERJAYA (EVERGREEN GARDEN RESIDENCE), SEPANG",
      "Firstvalue": 3491.086094,
      "Secondvalue": 3254.313928,
      "Count": 11,
      "Year": 2.75,
      "CAGR": -2.521534092,
      "lat": 2.9462054,
      "lng": 101.668141,
      "ROI": 8.587270006
   },
   {
      "Proptype": "RUMAH PANGSA KOS SEDERHANA",
      "Locality": "TAMAN SERI LEMBAYUNG, KLANG",
      "Firstvalue": 1166.666667,
      "Secondvalue": 1065.57377,
      "Count": 11,
      "Year": 4.25,
      "CAGR": -2.110061741,
      "lat": 3.0250507,
      "lng": 101.5284881,
      "ROI": 21.68928017
   },
   {
      "Proptype": "RUMAH TERES - HUJUNG",
      "Locality": "TAMAN TTDI GROVE SEMENYIH, ULU LANGAT",
      "Firstvalue": 5375.39134,
      "Secondvalue": 4964.274891,
      "Count": 11,
      "Year": 5,
      "CAGR": -1.578688708,
      "lat": 2.9974427,
      "lng": 101.8107426,
      "ROI": -5.477586226
   },
   {
      "Proptype": "RUMAH TERES KOS SEDERHANA - TENGAH",
      "Locality": "PERUMAHAN SG BURUNG, SABAK BERNAM",
      "Firstvalue": 1180.350634,
      "Secondvalue": 1128.276341,
      "Count": 11,
      "Year": 3,
      "CAGR": -1.492760701,
      "lat": 3.7682053,
      "lng": 100.9823957,
      "ROI": -11.68438663
   },
   {
      "Proptype": "PANGSAPURI",
      "Locality": "PANGSAPURI IMPIAN MERU, KLANG",
      "Firstvalue": 1318.929783,
      "Secondvalue": 1265.822785,
      "Count": 11,
      "Year": 3,
      "CAGR": -1.36060243,
      "lat": 3.1381462,
      "lng": 101.4280316,
      "ROI": -4.021504263
   },
   {
      "Proptype": "KONDOMINIUM",
      "Locality": "VILLA VISTA CHERAS, KUALA LUMPUR",
      "Firstvalue": 6533.974359,
      "Secondvalue": 6242.523029,
      "Count": 11,
      "Year": 4.5,
      "CAGR": -1.008897398,
      "lat": 3.1141491,
      "lng": 101.7300319,
      "ROI": 3.149975626
   },
   {
      "Proptype": "RUMAH TERES - HUJUNG",
      "Locality": "TAMAN PENDAMAR INDAH 3, KLANG",
      "Firstvalue": 3289.473684,
      "Secondvalue": 3185.524975,
      "Count": 11,
      "Year": 8,
      "CAGR": -0.400576481,
      "lat": 2.982161,
      "lng": 101.4241489,
      "ROI": 29.57033199
   },
   {
      "Proptype": "RUMAH TERES MEWAH - TENGAH",
      "Locality": "ONE SIERRA, GOMBAK",
      "Firstvalue": 4285.365854,
      "Secondvalue": 4178.106721,
      "Count": 11,
      "Year": 6.5,
      "CAGR": -0.389205581,
      "lat": 3.263373,
      "lng": 101.6482008,
      "ROI": 8.236712293
   },
   {
      "Proptype": "RUMAH TERES MEWAH - TENGAH",
      "Locality": "SERI BUKIT PERSEKUTUAN, KUALA LUMPUR",
      "Firstvalue": 6932.808412,
      "Secondvalue": 6841.587248,
      "Count": 11,
      "Year": 5,
      "CAGR": -0.264553973,
      "lat": 3.1374131,
      "lng": 101.683389,
      "ROI": 14.29561591
   },
   {
      "Proptype": "RUMAH TERES - HUJUNG",
      "Locality": "GOODVIEW HEIGHT TOWN CENTRE, ULU LANGAT",
      "Firstvalue": 5145.107061,
      "Secondvalue": 5124.166846,
      "Count": 11,
      "Year": 2.25,
      "CAGR": -0.181090616,
      "lat": 3.0046041,
      "lng": 101.8243692,
      "ROI": 39.97869519
   },
   {
      "Proptype": "RUMAH TERES - TEPI",
      "Locality": "TAMAN PALM GROVE, KLANG",
      "Firstvalue": 1810.176125,
      "Secondvalue": 1793.979405,
      "Count": 11,
      "Year": 5.5,
      "CAGR": -0.163282251,
      "lat": 3.0259089,
      "lng": 101.4332051,
      "ROI": -82.58800235
   },
   {
      "Proptype": "RUMAH PANGSA KOS RENDAH",
      "Locality": "PERUMAHAN AWAM SERI KOTA, KUALA LUMPUR",
      "Firstvalue": 581.6326531,
      "Secondvalue": 581.6326531,
      "Count": 11,
      "Year": 2.5,
      "CAGR": "0",
      "lat": 3.088746,
      "lng": 101.713587,
      "ROI": -3.91E-14
   },
   {
      "Proptype": "RUMAH TERES - HUJUNG",
      "Locality": "TAMAN CEMPAKA ULU LANGAT, ULU LANGAT",
      "Firstvalue": 3555.555556,
      "Secondvalue": 3799.917093,
      "Count": 11,
      "Year": 7.5,
      "CAGR": 0.890177702,
      "lat": 3.137759,
      "lng": 101.7497272,
      "ROI": 28.30151406
   },
   {
      "Proptype": "RUMAH TERES - HUJUNG",
      "Locality": "BANGSAR BARU, KUALA LUMPUR",
      "Firstvalue": 9634.972196,
      "Secondvalue": 10570.20173,
      "Count": 11,
      "Year": 9.5,
      "CAGR": 0.97992241,
      "lat": 3.132896,
      "lng": 101.6714351,
      "ROI": 24.08932126
   },
   {
      "Proptype": "RUMAH TERES KOS RENDAH - HUJUNG",
      "Locality": "TAMAN GARING UTAMA, GOMBAK",
      "Firstvalue": 1790.689493,
      "Secondvalue": 1983.798975,
      "Count": 11,
      "Year": 8.5,
      "CAGR": 1.212145815,
      "lat": 3.3435723,
      "lng": 101.5581999,
      "ROI": 24.73174596
   },
   {
      "Proptype": "RUMAH SESEBUAH-REKA BENTUK SENDIRI",
      "Locality": "SS 4 PETALING JAYA, PETALING",
      "Firstvalue": 5582.176555,
      "Secondvalue": 6038.607491,
      "Count": 11,
      "Year": 6.25,
      "CAGR": 1.26545474,
      "lat": 3.107318,
      "lng": 101.6092609,
      "ROI": 24.74873796
   },
   {
      "Proptype": "KONDOMINIUM",
      "Locality": "RESIDENSI 22 MONT KIARA, KUALA LUMPUR",
      "Firstvalue": 8523.401209,
      "Secondvalue": 8609.483218,
      "Count": 11,
      "Year": 0.75,
      "CAGR": 1.348860322,
      "lat": "NA",
      "lng": "NA",
      "ROI": 4.571487819
   },
   {
      "Proptype": "RUMAH SESEBUAH-REKA BENTUK SENDIRI",
      "Locality": "SUNGAI BAKAU, GOMBAK",
      "Firstvalue": 1614.639397,
      "Secondvalue": 1796.864029,
      "Count": 11,
      "Year": 7.25,
      "CAGR": 1.485844891,
      "lat": 3.3178779,
      "lng": 101.5394371,
      "ROI": 20.18358532
   },
   {
      "Proptype": "RUMAH SESEBUAH-REKA BENTUK SENDIRI",
      "Locality": "KAYANGAN HEIGHTS, PETALING",
      "Firstvalue": 3703.337942,
      "Secondvalue": 4162.226958,
      "Count": 11,
      "Year": 7.75,
      "CAGR": 1.518716377,
      "lat": 3.147978,
      "lng": 101.513156,
      "ROI": 19.49110114
   },
   {
      "Proptype": "RUMAH TERES - TENGAH",
      "Locality": "TAMAN ULU BERNAM BARU, HULU SELANGOR",
      "Firstvalue": 1241.161426,
      "Secondvalue": 1353.994283,
      "Count": 11,
      "Year": 5.75,
      "CAGR": 1.524748808,
      "lat": 3.6696763,
      "lng": 101.5216916,
      "ROI": 18.72853147
   },
   {
      "Proptype": "RUMAH TERES KOS SEDERHANA - HUJUNG",
      "Locality": "TAMAN SERI GOMBAK, GOMBAK",
      "Firstvalue": 2811.330839,
      "Secondvalue": 3258.937389,
      "Count": 11,
      "Year": 9.75,
      "CAGR": 1.526854067,
      "lat": 3.2453555,
      "lng": 101.7019249,
      "ROI": 37.42950678
   },
   {
      "Proptype": "RUMAH TERES - TEPI",
      "Locality": "BANDAR SERI COALFIELDS, KUALA SELANGOR",
      "Firstvalue": 3099.981942,
      "Secondvalue": 3430.584745,
      "Count": 11,
      "Year": 6.5,
      "CAGR": 1.571207051,
      "lat": 3.2508586,
      "lng": 101.4711458,
      "ROI": 2.768300313
   },
   {
      "Proptype": "RUMAH TERES - TENGAH",
      "Locality": "LAMAN GAPIMAS, HULU SELANGOR",
      "Firstvalue": 2478.723611,
      "Secondvalue": 2548.906449,
      "Count": 11,
      "Year": 1.5,
      "CAGR": 1.878809554,
      "lat": 3.4216458,
      "lng": 101.6268766,
      "ROI": -3.817239278
   },
   {
      "Proptype": "RUMAH SESEBUAH-REKA BENTUK PEMAJU",
      "Locality": "BANDAR BUKIT PUCHONG PETALING, PETALING",
      "Firstvalue": 4090.872315,
      "Secondvalue": 4596.940277,
      "Count": 11,
      "Year": 6.25,
      "CAGR": 1.883644057,
      "lat": 2.9827596,
      "lng": 101.62431,
      "ROI": 29.65106905
   },
   {
      "Proptype": "RUMAH TERES KOS SEDERHANA - TENGAH",
      "Locality": "TAMAN SERI SG PELEK, SEPANG",
      "Firstvalue": 1780.151313,
      "Secondvalue": 2152.85253,
      "Count": 11,
      "Year": 9,
      "CAGR": 2.134634792,
      "lat": 2.63775,
      "lng": 101.711733,
      "ROI": 29.05684089
   },
   {
      "Proptype": "RUMAH TERES - TEPI",
      "Locality": "KOTA WARISAN, SEPANG",
      "Firstvalue": 2128.335451,
      "Secondvalue": 2620.266121,
      "Count": 11,
      "Year": 8.75,
      "CAGR": 2.40486946,
      "lat": 2.824222,
      "lng": 101.6958172,
      "ROI": 38.46858793
   },
   {
      "Proptype": "RUMAH TERES - TENGAH",
      "Locality": "TAMAN RIA (PL 304) TG KARANG, KUALA SELANGOR",
      "Firstvalue": 1693.273543,
      "Secondvalue": 1923.737547,
      "Count": 11,
      "Year": 4.75,
      "CAGR": 2.722858119,
      "lat": 3.4230421,
      "lng": 101.1831497,
      "ROI": 20.78935768
   },
   {
      "Proptype": "RUMAH TERES - TENGAH",
      "Locality": "TAMAN MALAWATI UTAMA, KUALA SELANGOR",
      "Firstvalue": 2961.013325,
      "Secondvalue": 3290.014805,
      "Count": 11,
      "Year": 3.75,
      "CAGR": 2.849455657,
      "lat": 3.320832,
      "lng": 101.262083,
      "ROI": 34.98900857
   },
   {
      "Proptype": "RUMAH SESEBUAH-REKA BENTUK SENDIRI",
      "Locality": "SS 19 SUBANG JAYA, PETALING",
      "Firstvalue": 4666.454555,
      "Secondvalue": 6113.637232,
      "Count": 11,
      "Year": 8.75,
      "CAGR": 3.135257464,
      "lat": 3.065496,
      "lng": 101.578347,
      "ROI": 32.03282838
   },
   {
      "Proptype": "RUMAH BERKEMBAR",
      "Locality": "THE SERAI, KUALA LUMPUR",
      "Firstvalue": 5898.409312,
      "Secondvalue": 7494.454104,
      "Count": 11,
      "Year": 7.5,
      "CAGR": 3.244600082,
      "lat": 3.1810771,
      "lng": 101.6490234,
      "ROI": 14.58629086
   },
   {
      "Proptype": "RUMAH TERES - TENGAH",
      "Locality": "WEST PORT TECH ZONE, KLANG",
      "Firstvalue": 1319.336206,
      "Secondvalue": 1723.663702,
      "Count": 11,
      "Year": 8.25,
      "CAGR": 3.29335183,
      "lat": 2.9229644,
      "lng": 101.2873481,
      "ROI": 26.169751
   },
   {
      "Proptype": "RUMAH SESEBUAH-REKA BENTUK PEMAJU",
      "Locality": "KEMENSAH HEIGHTS, GOMBAK",
      "Firstvalue": 6024.34667,
      "Secondvalue": 7861.63522,
      "Count": 11,
      "Year": 8,
      "CAGR": 3.383294267,
      "lat": 3.211171,
      "lng": 101.7612709,
      "ROI": 25.34749305
   },
   {
      "Proptype": "RUMAH SESEBUAH-REKA BENTUK PEMAJU",
      "Locality": "SG BULOH COUNTRY RESORT, KUALA SELANGOR",
      "Firstvalue": 3518.803607,
      "Secondvalue": 4613.018965,
      "Count": 11,
      "Year": 8,
      "CAGR": 3.44244484,
      "lat": 3.200262,
      "lng": 101.4864957,
      "ROI": 27.75602259
   },
   {
      "Proptype": "RUMAH TERES - TENGAH",
      "Locality": "TAMAN GOLDENWOOD, HULU SELANGOR",
      "Firstvalue": 951.2355128,
      "Secondvalue": 1339.200306,
      "Count": 11,
      "Year": 10,
      "CAGR": 3.479839975,
      "lat": 3.6684269,
      "lng": 101.5278853,
      "ROI": 3.398228671
   },
   {
      "Proptype": "RUMAH SESEBUAH-REKA BENTUK PEMAJU",
      "Locality": "AMAN KIARA, KUALA LUMPUR",
      "Firstvalue": 11000,
      "Secondvalue": 14457.83133,
      "Count": 11,
      "Year": 7.75,
      "CAGR": 3.589915739,
      "lat": 3.1658612,
      "lng": 101.6474231,
      "ROI": 8.728479953
   },
   {
      "Proptype": "UNIT KEDIAMAN DLM KEDAI/PEJABAT/KEDIAMAN",
      "Locality": "TAMAN SUBANG INDAH PJS 10, PETALING",
      "Firstvalue": 1003.848084,
      "Secondvalue": 1339.357754,
      "Count": 11,
      "Year": 7.75,
      "CAGR": 3.790721092,
      "lat": 3.0757017,
      "lng": 101.5994249,
      "ROI": 35.79109234
   },
   {
      "Proptype": "RUMAH TERES - TENGAH",
      "Locality": "TAMAN KEMBARA (P/L 891), KLANG",
      "Firstvalue": 1662.519792,
      "Secondvalue": 2310.636147,
      "Count": 11,
      "Year": 8.75,
      "CAGR": 3.833818922,
      "lat": 3.068453,
      "lng": 101.4053141,
      "ROI": 25.9110129
   },
   {
      "Proptype": "RUMAH TERES KOS RENDAH - TENGAH",
      "Locality": "RUMAH MURAH PKNS BATU ARANG, GOMBAK",
      "Firstvalue": 1092.896175,
      "Secondvalue": 1561.61272,
      "Count": 11,
      "Year": 9.25,
      "CAGR": 3.933644125,
      "lat": 3.202973,
      "lng": 101.545682,
      "ROI": 20.30254588
   },
   {
      "Proptype": "RUMAH TERES - TENGAH",
      "Locality": "TAMAN KLANG RIA P/L 2580, KLANG",
      "Firstvalue": 1397.928575,
      "Secondvalue": 1867.677854,
      "Count": 11,
      "Year": 7.5,
      "CAGR": 3.938297351,
      "lat": 3.006818,
      "lng": 101.463192,
      "ROI": 26.66083483
   },
   {
      "Proptype": "RUMAH SESEBUAH-REKA BENTUK SENDIRI",
      "Locality": "TAMAN SA, KUALA LUMPUR",
      "Firstvalue": 9091.815378,
      "Secondvalue": 12438.28696,
      "Count": 11,
      "Year": 8,
      "CAGR": 3.995307999,
      "lat": 3.145719,
      "lng": 101.669117,
      "ROI": 27.19849475
   },
   {
      "Proptype": "RUMAH TERES - TENGAH",
      "Locality": "TAMAN BAYU SEKAMAT, ULU LANGAT",
      "Firstvalue": 2602.483643,
      "Secondvalue": 3338.229403,
      "Count": 11,
      "Year": 6,
      "CAGR": 4.2368699,
      "lat": 3.0274312,
      "lng": 101.7923601,
      "ROI": 12.72674825
   },
   {
      "Proptype": "RUMAH PANGSA KOS RENDAH",
      "Locality": "TAMAN TAMING EMAS, ULU LANGAT",
      "Firstvalue": 952.037031,
      "Secondvalue": 1406.25,
      "Count": 11,
      "Year": 9.25,
      "CAGR": 4.307239863,
      "lat": 2.985901,
      "lng": 101.7850489,
      "ROI": 19.05414532
   },
   {
      "Proptype": "RUMAH TERES - TENGAH",
      "Locality": "TAMAN ANGKASA 2, KLANG",
      "Firstvalue": 1626.687896,
      "Secondvalue": 2054.724153,
      "Count": 11,
      "Year": 5.25,
      "CAGR": 4.549912692,
      "lat": 3.044917,
      "lng": 101.4455621,
      "ROI": 15.31887374
   },
   {
      "Proptype": "RUMAH PANGSA KOS RENDAH",
      "Locality": "TAMAN SENTOSA, ULU LANGAT",
      "Firstvalue": 890.3838544,
      "Secondvalue": 1274.509804,
      "Count": 11,
      "Year": 8,
      "CAGR": 4.585322044,
      "lat": 2.993284,
      "lng": 101.8069031,
      "ROI": 35.38092614
   },
   {
      "Proptype": "RUMAH TERES - TENGAH",
      "Locality": "TAMAN SIRIH IDAMAN, KLANG",
      "Firstvalue": 1654.031702,
      "Secondvalue": 2205.375603,
      "Count": 11,
      "Year": 6.25,
      "CAGR": 4.710491435,
      "lat": 3.0448516,
      "lng": 101.44471,
      "ROI": 16.27028833
   },
   {
      "Proptype": "RUMAH TERES - HUJUNG",
      "Locality": "TAMAN DESA BUKIT INDAH, GOMBAK",
      "Firstvalue": 3535.656194,
      "Secondvalue": 5136.546529,
      "Count": 11,
      "Year": 8,
      "CAGR": 4.779217274,
      "lat": 3.228447,
      "lng": 101.580093,
      "ROI": 19.89658169
   },
   {
      "Proptype": "RUMAH SESEBUAH-REKA BENTUK PEMAJU",
      "Locality": "SERI BUKIT PERSEKUTUAN, KUALA LUMPUR",
      "Firstvalue": 11785.02305,
      "Secondvalue": 18659.18535,
      "Count": 11,
      "Year": 9.75,
      "CAGR": 4.825736473,
      "lat": 3.1374131,
      "lng": 101.683389,
      "ROI": 14.29561591
   },
   {
      "Proptype": "PANGSAPURI",
      "Locality": "SEK 19 SHAH ALAM, PETALING",
      "Firstvalue": 1250,
      "Secondvalue": 1833.333333,
      "Count": 11,
      "Year": 8,
      "CAGR": 4.903850123,
      "lat": 3.048653,
      "lng": 101.5343561,
      "ROI": 13.31136548
   },